FID,Join_Count,TARGET_FID,STATEFP,COUNTYFP,COUNTYNS,GEOID,NAME,NAMELSAD,LSAD,CLASSFP,MTFCC,CSAFP,CBSAFP,METDIVFP,FUNCSTAT,ALAND,AWATER,INTPTLAT,INTPTLON,ORIG_FID,MOD,LON,LAT,ROW_ID,COL_ID
0,1,0,31,039,00835841,31039,Cuming,Cuming County,06,H1,G4020, , , ,A,1477641638.000000000000000,10701538.000000000000000,+41.9158651,-096.7885168,0,0,-96.813000000000002,41.938000000000002,136,226
1,1,1,53,069,01513275,53069,Wahkiakum,Wahkiakum County,06,H1,G4020, , , ,A,680956787.000000000000000,61588406.000000000000000,+46.2946377,-123.4244583,1,0,-123.438000000000002,46.313000000000002,171,13
2,1,2,35,011,00933054,35011,De Baca,De Baca County,06,H1,G4020, , , ,A,6016761648.000000000000000,29147345.000000000000000,+34.3592729,-104.3686961,2,0,-104.438000000000002,34.313000000000002,75,165
3,1,3,31,109,00835876,31109,Lancaster,Lancaster County,06,H1,G4020,339,30700, ,A,2169252486.000000000000000,22867561.000000000000000,+40.7835474,-096.6886584,3,0,-96.688000000000002,40.813000000000002,127,227
4,1,4,31,129,00835886,31129,Nuckolls,Nuckolls County,06,H1,G4020, , , ,A,1489645186.000000000000000,1718484.000000000000000,+40.1764918,-098.0468422,4,0,-98.063000000000002,40.188000000000002,122,216
5,1,5,46,099,01265772,46099,Minnehaha,Minnehaha County,06,H1,G4020, ,43620, ,A,2089691696.000000000000000,18198505.000000000000000,+43.6674723,-096.7957261,5,0,-96.813000000000002,43.688000000000002,150,226
6,1,6,48,327,01383949,48327,Menard,Menard County,06,H1,G4020, , , ,A,2336237920.000000000000000,613559.000000000000000,+30.8843921,-099.8539616,6,0,-99.813000000000002,30.937999999999999,48,202
7,1,7,06,091,00277310,06091,Sierra,Sierra County,06,H1,G4020, , , ,A,2468694586.000000000000000,23299110.000000000000000,+39.5769252,-120.5219926,7,0,-120.563000000000002,39.563000000000002,117,36
8,1,8,21,053,00516873,21053,Clinton,Clinton County,06,H1,G4020, , , ,A,510864294.000000000000000,21164151.000000000000000,+36.7272577,-085.1360977,8,0,-85.188000000000002,36.688000000000002,94,319
9,1,9,39,063,01074044,39063,Hancock,Hancock County,06,H1,G4020,248,22300, ,A,1376210232.000000000000000,5959837.000000000000000,+41.0004711,-083.6660335,9,0,-83.688000000000002,41.063000000000002,129,331
10,1,10,48,189,01383880,48189,Hale,Hale County,06,H1,G4020, ,38380, ,A,2602109431.000000000000000,246678.000000000000000,+34.0684364,-101.8228879,10,0,-101.813000000000002,34.063000000000002,73,186
11,1,11,01,027,00161539,01027,Clay,Clay County,06,H1,G4020, , , ,A,1564253513.000000000000000,5283523.000000000000000,+33.2703999,-085.8635254,11,0,-85.813000000000002,33.313000000000002,67,314
12,1,12,48,011,01383791,48011,Armstrong,Armstrong County,06,H1,G4020,108,11100, ,A,2354581675.000000000000000,12219587.000000000000000,+34.9641790,-101.3566363,12,0,-101.313000000000002,34.938000000000002,80,190
13,1,13,39,003,01074015,39003,Allen,Allen County,06,H1,G4020,338,30620, ,A,1042470095.000000000000000,11266164.000000000000000,+40.7716274,-084.1061032,13,0,-84.063000000000002,40.813000000000002,127,328
14,1,14,13,189,00348794,13189,McDuffie,McDuffie County,06,H1,G4020, ,12260, ,A,666813913.000000000000000,23119020.000000000000000,+33.4796231,-082.4787331,14,0,-82.438000000000002,33.438000000000002,68,341
15,1,15,55,111,01581115,55111,Sauk,Sauk County,06,H1,G4020,357,12660, ,A,2153665639.000000000000000,45713371.000000000000000,+43.4279976,-089.9433290,15,0,-89.938000000000002,43.438000000000002,148,281
16,1,16,05,137,00069902,05137,Stone,Stone County,06,H1,G4020, , , ,A,1570579424.000000000000000,7841928.000000000000000,+35.8570169,-092.1405080,16,0,-92.188000000000002,35.813000000000002,87,263
17,1,17,41,063,01155135,41063,Wallowa,Wallowa County,06,H1,G4020, , , ,A,8147836572.000000000000000,14191789.000000000000000,+45.5937530,-117.1855796,17,0,-117.188000000000002,45.563000000000002,165,63
18,1,18,42,007,01214112,42007,Beaver,Beaver County,06,H1,G4020,430,38300, ,A,1125901161.000000000000000,24165972.000000000000000,+40.6841401,-080.3507209,18,0,-80.313000000000002,40.688000000000002,126,358
19,1,19,28,061,00695754,28061,Jasper,Jasper County,06,H1,G4020, ,29860, ,A,1751451429.000000000000000,3181592.000000000000000,+32.0169894,-089.1194302,19,0,-89.063000000000002,32.063000000000002,57,288
20,1,20,29,083,00758496,29083,Henry,Henry County,06,H1,G4020, , , ,A,1805075858.000000000000000,91636450.000000000000000,+38.3864909,-093.7926278,20,0,-93.813000000000002,38.438000000000002,108,250
21,1,21,08,109,00198170,08109,Saguache,Saguache County,06,H1,G4020, , , ,A,8206547707.000000000000000,4454510.000000000000000,+38.0316514,-106.2346662,21,0,-106.313000000000002,38.063000000000002,105,150
22,1,22,37,037,01008544,37037,Chatham,Chatham County,06,H1,G4020,450,20500, ,A,1765011149.000000000000000,71264075.000000000000000,+35.7049939,-079.2514542,22,0,-79.313000000000002,35.688000000000002,86,366
23,1,23,49,033,01448030,49033,Rich,Rich County,06,H1,G4020, , , ,A,2664700942.000000000000000,149106532.000000000000000,+41.6275976,-111.2402269,23,0,-111.188000000000002,41.688000000000002,134,111
24,1,24,40,001,01101788,40001,Adair,Adair County,06,H1,G4020, , , ,A,1485304967.000000000000000,9254749.000000000000000,+35.8980428,-094.6510258,24,0,-94.688000000000002,35.938000000000002,88,243
25,1,25,39,085,01074055,39085,Lake,Lake County,06,H1,G4020,184,17460, ,A,593799763.000000000000000,1942309063.000000000000000,+41.9241163,-081.3926429,25,1,-81.188000000000002,41.688000000000002,134,351
26,1,26,51,775,01789074,51775,Salem,Salem city,25,C7,G4020, ,40220, ,F,37599554.000000000000000,277514.000000000000000,+37.2853329,-080.0552407,26,0,-80.063000000000002,37.313000000000002,99,360
27,1,27,51,121,01674630,51121,Montgomery,Montgomery County,06,H1,G4020, ,13980, ,A,1001920374.000000000000000,6291775.000000000000000,+37.1755344,-080.3877913,27,0,-80.438000000000002,37.188000000000002,98,357
28,1,28,47,065,01639749,47065,Hamilton,Hamilton County,06,H1,G4020,174,16860, ,A,1404756919.000000000000000,86766886.000000000000000,+35.1607616,-085.1977114,28,0,-85.188000000000002,35.188000000000002,82,319
29,1,29,35,035,00929104,35035,Otero,Otero County,06,H1,G4020, ,10460, ,A,17126453574.000000000000000,36946480.000000000000000,+32.5887755,-105.7809799,29,0,-105.688000000000002,32.563000000000002,61,155
30,1,30,35,003,00929108,35003,Catron,Catron County,06,H1,G4020, , , ,A,17933560026.000000000000000,14194439.000000000000000,+33.9018583,-108.3920882,30,0,-108.438000000000002,33.938000000000002,72,133
31,1,31,01,091,00161572,01091,Marengo,Marengo County,06,H1,G4020, , , ,A,2530140238.000000000000000,14966620.000000000000000,+32.2475911,-087.7910910,31,0,-87.813000000000002,32.188000000000002,58,298
32,1,32,56,023,01605076,56023,Lincoln,Lincoln County,06,H1,G4020, , , ,A,10555073751.000000000000000,49947392.000000000000000,+42.2299932,-110.6829614,32,0,-110.688000000000002,42.313000000000002,139,115
33,1,33,29,011,00758460,29011,Barton,Barton County,06,H1,G4020, , , ,A,1533062380.000000000000000,12440434.000000000000000,+37.5007989,-094.3440893,33,0,-94.313000000000002,37.563000000000002,101,246
34,1,34,48,057,01383814,48057,Calhoun,Calhoun County,06,H1,G4020,544,38920, ,A,1312707024.000000000000000,1361884769.000000000000000,+28.4417191,-096.5795739,34,0,-96.563000000000002,28.437999999999999,28,228
35,1,35,51,735,01498436,51735,Poquoson,Poquoson city,25,C7,G4020,545,47260, ,F,39839069.000000000000000,163454357.000000000000000,+37.1283599,-076.3035337,35,1,-76.438000000000002,37.063000000000002,97,389
36,1,36,54,075,01550044,54075,Pocahontas,Pocahontas County,06,H1,G4020, , , ,A,2435322222.000000000000000,3978619.000000000000000,+38.3326060,-080.0101207,36,0,-80.063000000000002,38.313000000000002,107,360
37,1,37,48,077,01383824,48077,Clay,Clay County,06,H1,G4020, ,48660, ,A,2819788075.000000000000000,72590626.000000000000000,+33.7859042,-098.2129174,37,0,-98.188000000000002,33.813000000000002,71,215
38,1,38,51,095,01480135,51095,James City,James City County,06,H1,G4020,545,47260, ,A,368881354.000000000000000,95089229.000000000000000,+37.3248367,-076.7778878,38,0,-76.813000000000002,37.313000000000002,99,386
39,1,39,31,101,00835872,31101,Keith,Keith County,06,H1,G4020, , , ,A,2749531887.000000000000000,124672175.000000000000000,+41.1942448,-101.6444493,39,0,-101.688000000000002,41.188000000000002,130,187
40,1,40,31,137,00835890,31137,Phelps,Phelps County,06,H1,G4020, , , ,A,1398048570.000000000000000,1646534.000000000000000,+40.5163647,-099.4065568,40,0,-99.438000000000002,40.563000000000002,125,205
41,1,41,22,019,00558468,22019,Calcasieu,Calcasieu Parish,15,H1,G4020,324,29340, ,A,2756538198.000000000000000,77608623.000000000000000,+30.2295588,-093.3580154,41,0,-93.313000000000002,30.187999999999999,42,254
42,1,42,22,111,00559528,22111,Union,Union Parish,15,H1,G4020,384,33740, ,A,2271359845.000000000000000,73624039.000000000000000,+32.8293486,-092.3756501,42,0,-92.313000000000002,32.813000000000002,63,262
43,1,43,40,135,01101855,40135,Sequoyah,Sequoyah County,06,H1,G4020, ,22900, ,A,1743779422.000000000000000,105832791.000000000000000,+35.5024345,-094.7507569,43,0,-94.813000000000002,35.438000000000002,84,242
44,1,44,01,049,00161550,01049,DeKalb,DeKalb County,06,H1,G4020,290,22840, ,A,2012676476.000000000000000,4121538.000000000000000,+34.4609290,-085.8039920,44,0,-85.813000000000002,34.438000000000002,76,314
45,1,45,36,101,00974148,36101,Steuben,Steuben County,06,H1,G4020,236,18500, ,A,3601504767.000000000000000,35055663.000000000000000,+42.2667252,-077.3855253,45,0,-77.438000000000002,42.313000000000002,139,381
46,1,46,42,053,01213669,42053,Forest,Forest County,06,H1,G4020, , , ,A,1106623935.000000000000000,8356610.000000000000000,+41.5133040,-079.2497050,46,0,-79.188000000000002,41.563000000000002,133,367
47,1,47,22,105,00559500,22105,Tangipahoa,Tangipahoa Parish,15,H1,G4020,406,25220, ,A,2049488093.000000000000000,136678798.000000000000000,+30.6215802,-090.4066329,47,0,-90.438000000000002,30.687999999999999,46,277
48,1,48,51,179,01480173,51179,Stafford,Stafford County,06,H1,G4020,548,47900,47894,A,697237227.000000000000000,28088013.000000000000000,+38.4153998,-077.4548785,48,0,-77.438000000000002,38.438000000000002,108,381
49,1,49,26,109,01622997,26109,Menominee,Menominee County,06,H1,G4020, ,31940, ,A,2704072756.000000000000000,761779246.000000000000000,+45.5382374,-087.4929489,49,0,-87.563000000000002,45.563000000000002,165,300
50,1,50,18,073,00450494,18073,Jasper,Jasper County,06,H1,G4020,176,16980,23844,A,1449422928.000000000000000,4569484.000000000000000,+41.0176883,-087.1188137,50,0,-87.063000000000002,41.063000000000002,129,304
51,1,51,13,025,00351605,13025,Brantley,Brantley County,06,H1,G4020, ,15260, ,A,1145708458.000000000000000,12540408.000000000000000,+31.1973339,-081.9829779,51,0,-81.938000000000002,31.187999999999999,50,345
52,1,52,13,171,00326713,13171,Lamar,Lamar County,06,H1,G4020,122,12060, ,A,475262778.000000000000000,6046030.000000000000000,+33.0744605,-084.1467208,52,0,-84.188000000000002,33.063000000000002,65,327
53,1,53,18,151,00450390,18151,Steuben,Steuben County,06,H1,G4020,258,11420, ,A,799725227.000000000000000,35458838.000000000000000,+41.6434670,-085.0024051,53,0,-85.063000000000002,41.688000000000002,134,320
54,1,54,48,361,01383966,48361,Orange,Orange County,06,H1,G4020, ,13140, ,A,864489134.000000000000000,118488356.000000000000000,+30.1223229,-093.8940999,54,0,-93.938000000000002,30.062999999999999,41,249
55,1,55,39,047,01074036,39047,Fayette,Fayette County,06,H1,G4020,198,47920, ,A,1052469899.000000000000000,1694037.000000000000000,+39.5552462,-083.4618927,55,0,-83.438000000000002,39.563000000000002,117,333
56,1,56,25,015,00606934,25015,Hampshire,Hampshire County,06,H4,G4020,521,44140, ,N,1365526500.000000000000000,46525649.000000000000000,+42.3394593,-072.6636936,56,0,-72.688000000000002,42.313000000000002,139,419
57,1,57,21,003,00516848,21003,Allen,Allen County,06,H1,G4020,150,14540, ,A,891830211.000000000000000,19490893.000000000000000,+36.7507703,-086.1924580,57,0,-86.188000000000002,36.813000000000002,95,311
58,1,58,37,001,01008531,37001,Alamance,Alamance County,06,H1,G4020,268,15500, ,A,1096654286.000000000000000,28025249.000000000000000,+36.0439535,-079.4005733,58,0,-79.438000000000002,36.063000000000002,89,365
59,1,59,20,073,00485003,20073,Greenwood,Greenwood County,06,H1,G4020, , , ,A,2961121922.000000000000000,24166737.000000000000000,+37.8793472,-096.2417321,59,0,-96.188000000000002,37.938000000000002,104,231
60,1,60,25,025,00606939,25025,Suffolk,Suffolk County,06,H4,G4020,148,14460,14454,N,150855462.000000000000000,160479920.000000000000000,+42.3385513,-071.0182530,60,1,-71.063000000000002,42.313000000000002,139,432
61,1,61,16,051,00399751,16051,Jefferson,Jefferson County,06,H1,G4020,292,26820, ,A,2832617277.000000000000000,31168379.000000000000000,+43.7969649,-112.3185879,61,0,-112.313000000000002,43.813000000000002,151,102
62,1,62,48,177,01383874,48177,Gonzales,Gonzales County,06,H1,G4020, , , ,A,2762704870.000000000000000,8204086.000000000000000,+29.4619121,-097.4919205,62,0,-97.438000000000002,29.437999999999999,36,221
63,1,63,47,115,01639770,47115,Marion,Marion County,06,H1,G4020,174,16860, ,A,1290244637.000000000000000,36484742.000000000000000,+35.1334215,-085.6183990,63,0,-85.563000000000002,35.188000000000002,82,316
64,1,64,26,007,01622946,26007,Alpena,Alpena County,06,H1,G4020, ,10980, ,A,1481123848.000000000000000,2908714548.000000000000000,+44.8949540,-083.4265739,64,1,-83.438000000000002,45.063000000000002,161,333
65,1,65,21,231,00516962,21231,Wayne,Wayne County,06,H1,G4020, , , ,A,1186687833.000000000000000,67286710.000000000000000,+36.8020113,-084.8304404,65,0,-84.813000000000002,36.813000000000002,95,322
66,1,66,47,185,01639800,47185,White,White County,06,H1,G4020, , , ,A,975592111.000000000000000,7113368.000000000000000,+35.9270486,-085.4557854,66,0,-85.438000000000002,35.938000000000002,88,317
67,1,67,48,147,01383859,48147,Fannin,Fannin County,06,H1,G4020,206,14300, ,A,2307250942.000000000000000,20847063.000000000000000,+33.5911611,-096.1049882,67,0,-96.063000000000002,33.563000000000002,69,232
68,1,68,20,043,00484991,20043,Doniphan,Doniphan County,06,H1,G4020,312,41140, ,A,1019094906.000000000000000,12434954.000000000000000,+39.7885021,-095.1472253,68,0,-95.188000000000002,39.813000000000002,119,239
69,1,69,48,265,01383918,48265,Kerr,Kerr County,06,H1,G4020, ,28500, ,A,2857602924.000000000000000,10246419.000000000000000,+30.0599530,-099.3533388,69,0,-99.313000000000002,30.062999999999999,41,206
70,1,70,12,053,00295751,12053,Hernando,Hernando County,06,H1,G4020, ,45300, ,A,1224692722.000000000000000,300863005.000000000000000,+28.5730426,-082.4662272,70,0,-82.438000000000002,28.562999999999999,29,341
71,1,71,12,129,00306912,12129,Wakulla,Wakulla County,06,H1,G4020,533,45220, ,A,1570625279.000000000000000,334901690.000000000000000,+30.1403575,-084.3751122,71,0,-84.438000000000002,30.187999999999999,42,325
72,1,72,12,131,00295727,12131,Walton,Walton County,06,H1,G4020, ,18880, ,A,2687686788.000000000000000,522848570.000000000000000,+30.6312106,-086.1766139,72,0,-86.188000000000002,30.562999999999999,45,311
73,1,73,28,017,00695733,28017,Chickasaw,Chickasaw County,06,H1,G4020, , , ,A,1299609263.000000000000000,6380767.000000000000000,+33.9216539,-088.9458075,73,0,-88.938000000000002,33.938000000000002,72,289
74,1,74,26,035,01622960,26035,Clare,Clare County,06,H1,G4020, , , ,A,1461741364.000000000000000,28501274.000000000000000,+43.9911368,-084.8383253,74,0,-84.813000000000002,43.938000000000002,152,322
75,1,75,20,157,00485042,20157,Republic,Republic County,06,H1,G4020, , , ,A,1857980543.000000000000000,7969708.000000000000000,+39.8289103,-097.6509213,75,0,-97.688000000000002,39.813000000000002,119,219
76,1,76,12,127,00306921,12127,Volusia,Volusia County,06,H1,G4020,422,19660, ,A,2852082296.000000000000000,857948738.000000000000000,+29.0577690,-081.1617920,76,0,-81.188000000000002,29.062999999999999,33,351
77,1,77,40,017,01101796,40017,Canadian,Canadian County,06,H1,G4020,416,36420, ,A,2322265669.000000000000000,23229300.000000000000000,+35.5434100,-097.9798435,77,0,-97.938000000000002,35.563000000000002,85,217
78,1,78,13,115,00353665,13115,Floyd,Floyd County,06,H1,G4020,470,40660, ,A,1320436485.000000000000000,22382107.000000000000000,+34.2636918,-085.2136851,78,0,-85.188000000000002,34.313000000000002,75,319
79,1,79,32,001,00858638,32001,Churchill,Churchill County,06,H1,G4020, ,21980, ,A,12770128151.000000000000000,242405502.000000000000000,+39.5377100,-118.2641654,79,0,-118.313000000000002,39.563000000000002,117,54
80,1,80,31,181,00835912,31181,Webster,Webster County,06,H1,G4020, , , ,A,1489017971.000000000000000,337241.000000000000000,+40.1806461,-098.4985897,80,0,-98.438000000000002,40.188000000000002,122,213
81,1,81,17,067,00424235,17067,Hancock,Hancock County,06,H1,G4020, ,22800, ,A,2055740566.000000000000000,53535827.000000000000000,+40.4057924,-091.1679875,81,0,-91.188000000000002,40.438000000000002,124,271
82,1,82,46,067,01265771,46067,Hutchinson,Hutchinson County,06,H1,G4020, , , ,A,2105695489.000000000000000,3644220.000000000000000,+43.3367101,-097.7493828,82,0,-97.813000000000002,43.313000000000002,147,218
83,1,83,41,013,01155128,41013,Crook,Crook County,06,H1,G4020,140,39260, ,A,7715298889.000000000000000,21091929.000000000000000,+44.1630537,-120.3715849,83,0,-120.313000000000002,44.188000000000002,154,38
84,1,84,50,011,01461762,50011,Franklin,Franklin County,06,H1,G4020, ,15540, ,A,1641633748.000000000000000,150930318.000000000000000,+44.8589643,-072.9094023,84,0,-72.938000000000002,44.813000000000002,159,417
85,1,85,26,103,01622994,26103,Marquette,Marquette County,06,H1,G4020, ,32100, ,A,4685386476.000000000000000,4185372277.000000000000000,+46.6565964,-087.5840278,85,0,-87.563000000000002,46.688000000000002,174,300
86,1,86,09,007,00212797,09007,Middlesex,Middlesex County,06,H4,G4020,278,25540, ,N,956493768.000000000000000,180679144.000000000000000,+41.4330028,-072.5227802,86,0,-72.563000000000002,41.438000000000002,132,420
87,1,87,37,057,01008548,37057,Davidson,Davidson County,06,H1,G4020,268,49180, ,A,1432711780.000000000000000,37452228.000000000000000,+35.7951312,-080.2071070,87,0,-80.188000000000002,35.813000000000002,87,359
88,1,88,17,025,00424214,17025,Clay,Clay County,06,H1,G4020, , , ,A,1212958827.000000000000000,3278251.000000000000000,+38.7468320,-088.4823443,88,0,-88.438000000000002,38.813000000000002,111,293
89,1,89,29,103,00758506,29103,Knox,Knox County,06,H1,G4020, , , ,A,1305376708.000000000000000,7307012.000000000000000,+40.1368559,-092.1468345,89,0,-92.188000000000002,40.188000000000002,122,263
90,1,90,29,117,00758513,29117,Livingston,Livingston County,06,H1,G4020, , , ,A,1378706292.000000000000000,16156752.000000000000000,+39.7785870,-093.5482013,90,0,-93.563000000000002,39.813000000000002,119,252
91,1,91,42,117,01209189,42117,Tioga,Tioga County,06,H1,G4020, , , ,A,2936469292.000000000000000,8257078.000000000000000,+41.7668593,-077.2572881,91,0,-77.313000000000002,41.813000000000002,135,382
92,1,92,31,043,00835843,31043,Dakota,Dakota County,06,H1,G4020,512,43580, ,A,684416197.000000000000000,8199748.000000000000000,+42.3916449,-096.5613555,92,0,-96.563000000000002,42.438000000000002,140,228
93,1,93,26,089,01622987,26089,Leelanau,Leelanau County,06,H1,G4020, ,45900, ,A,899206779.000000000000000,5659140425.000000000000000,+45.1461816,-086.0515740,93,1,-85.938000000000002,44.938000000000002,160,313
94,1,94,51,181,01480174,51181,Surry,Surry County,06,H1,G4020, , , ,A,722475755.000000000000000,81216907.000000000000000,+37.1197611,-076.8801717,94,0,-76.938000000000002,37.063000000000002,97,385
95,1,95,48,391,01383981,48391,Refugio,Refugio County,06,H1,G4020, , , ,A,1995545559.000000000000000,123687613.000000000000000,+28.3127162,-097.1613657,95,0,-97.188000000000002,28.312999999999999,27,223
96,1,96,39,017,01074021,39017,Butler,Butler County,06,H1,G4020,178,17140, ,A,1209498280.000000000000000,7863952.000000000000000,+39.4397469,-084.5657341,96,0,-84.563000000000002,39.438000000000002,116,324
97,1,97,13,273,00352238,13273,Terrell,Terrell County,06,H1,G4020, ,10500, ,A,868785319.000000000000000,5861795.000000000000000,+31.7771909,-084.4394464,97,0,-84.438000000000002,31.812999999999999,55,325
98,1,98,13,063,01672399,13063,Clayton,Clayton County,06,H1,G4020,122,12060, ,A,366881210.000000000000000,7038080.000000000000000,+33.5426863,-084.3555727,98,0,-84.313000000000002,33.563000000000002,69,326
99,1,99,56,013,01605072,56013,Fremont,Fremont County,06,H1,G4020, ,40180, ,A,23784954724.000000000000000,213202754.000000000000000,+43.0548310,-108.6089349,99,0,-108.688000000000002,43.063000000000002,145,131
100,1,100,18,115,00450378,18115,Ohio,Ohio County,06,H1,G4020,178,17140, ,A,223126822.000000000000000,3352208.000000000000000,+38.9405270,-084.9642994,100,0,-84.938000000000002,38.938000000000002,112,321
101,1,101,13,073,00348865,13073,Columbia,Columbia County,06,H1,G4020, ,12260, ,A,751323672.000000000000000,45373097.000000000000000,+33.5476313,-082.2522957,101,0,-82.313000000000002,33.563000000000002,69,342
102,1,102,08,115,00198173,08115,Sedgwick,Sedgwick County,06,H1,G4020, , , ,A,1419419128.000000000000000,3530746.000000000000000,+40.8715679,-102.3553579,102,0,-102.313000000000002,40.938000000000002,128,182
103,1,103,30,065,01719593,30065,Musselshell,Musselshell County,06,H1,G4020, , , ,A,4840577752.000000000000000,7118682.000000000000000,+46.5052807,-108.4397631,103,0,-108.438000000000002,46.438000000000002,172,133
104,1,104,42,043,01213667,42043,Dauphin,Dauphin County,06,H1,G4020,276,25420, ,A,1359893289.000000000000000,85780786.000000000000000,+40.4125646,-076.7926343,104,0,-76.813000000000002,40.438000000000002,124,386
105,1,105,46,101,01265775,46101,Moody,Moody County,06,H1,G4020, , , ,A,1345200317.000000000000000,3679400.000000000000000,+44.0124293,-096.6760536,105,0,-96.688000000000002,44.063000000000002,153,227
106,1,106,54,079,01550046,54079,Putnam,Putnam County,06,H1,G4020,170,26580, ,A,895302287.000000000000000,12226982.000000000000000,+38.5105128,-081.9061090,106,0,-81.938000000000002,38.563000000000002,109,345
107,1,107,34,037,00882236,34037,Sussex,Sussex County,06,H1,G4020,408,35620,35084,A,1343552956.000000000000000,43234734.000000000000000,+41.1374609,-074.6919141,107,0,-74.688000000000002,41.188000000000002,130,403
108,1,108,20,039,00484989,20039,Decatur,Decatur County,06,H1,G4020, , , ,A,2314199314.000000000000000,1631670.000000000000000,+39.7835420,-100.4597084,108,0,-100.438000000000002,39.813000000000002,119,197
109,1,109,18,123,00451682,18123,Perry,Perry County,06,H1,G4020, , , ,A,988669306.000000000000000,11816977.000000000000000,+38.0814361,-086.6265397,109,0,-86.688000000000002,38.063000000000002,105,307
110,1,110,28,145,00695793,28145,Union,Union County,06,H1,G4020, , , ,A,1076399403.000000000000000,3387488.000000000000000,+34.4895325,-089.0023393,110,0,-89.063000000000002,34.438000000000002,76,288
111,1,111,31,015,00835829,31015,Boyd,Boyd County,06,H1,G4020, , , ,A,1398425584.000000000000000,11890320.000000000000000,+42.8944477,-098.7730221,111,0,-98.813000000000002,42.938000000000002,144,210
112,1,112,27,095,00659493,27095,Mille Lacs,Mille Lacs County,06,H1,G4020,378,33460, ,A,1482348668.000000000000000,282998978.000000000000000,+45.9290434,-093.6329964,112,0,-93.688000000000002,45.938000000000002,168,251
113,1,113,38,099,01034214,38099,Walsh,Walsh County,06,H1,G4020, , , ,A,3319505703.000000000000000,32184979.000000000000000,+48.3769789,-097.7222304,113,0,-97.688000000000002,48.313000000000002,187,219
114,1,114,39,115,01074070,39115,Morgan,Morgan County,06,H1,G4020, , , ,A,1078539439.000000000000000,13873466.000000000000000,+39.6249458,-081.8616967,114,0,-81.813000000000002,39.563000000000002,117,346
115,1,115,39,133,01074079,39133,Portage,Portage County,06,H1,G4020,184,10420, ,A,1262374971.000000000000000,43121843.000000000000000,+41.1688366,-081.1970420,115,0,-81.188000000000002,41.188000000000002,130,351
116,1,116,56,041,01605084,56041,Uinta,Uinta County,06,H1,G4020, ,21740, ,A,5391911952.000000000000000,16345637.000000000000000,+41.2847255,-110.5589468,116,0,-110.563000000000002,41.313000000000002,131,116
117,1,117,32,013,00863310,32013,Humboldt,Humboldt County,06,H1,G4020, ,49080, ,A,24969533279.000000000000000,44196979.000000000000000,+41.4079136,-118.1275915,117,0,-118.063000000000002,41.438000000000002,132,56
118,1,118,48,247,01383909,48247,Jim Hogg,Jim Hogg County,06,H1,G4020, , , ,A,2942674729.000000000000000,92565.000000000000000,+27.0412118,-098.7001270,118,0,-98.688000000000002,27.062999999999999,17,211
119,1,119,08,017,00198124,08017,Cheyenne,Cheyenne County,06,H1,G4020, , , ,A,4605714032.000000000000000,8166134.000000000000000,+38.8353865,-102.6045852,119,0,-102.563000000000002,38.813000000000002,111,180
120,1,120,41,005,01155127,41005,Clackamas,Clackamas County,06,H1,G4020,440,38900, ,A,4845049025.000000000000000,31834351.000000000000000,+45.1604934,-122.1951274,120,0,-122.188000000000002,45.188000000000002,162,23
121,1,121,05,113,00069175,05113,Polk,Polk County,06,H1,G4020, , , ,A,2221382755.000000000000000,12372286.000000000000000,+34.4909149,-094.2308841,121,0,-94.188000000000002,34.438000000000002,76,247
122,1,122,13,193,00346957,13193,Macon,Macon County,06,H1,G4020, , , ,A,1037653519.000000000000000,13860062.000000000000000,+32.3626859,-084.0512306,122,0,-84.063000000000002,32.313000000000002,59,328
123,1,123,18,007,00450403,18007,Benton,Benton County,06,H1,G4020,320,29200, ,A,1052616452.000000000000000,236033.000000000000000,+40.6009826,-087.3147896,123,0,-87.313000000000002,40.563000000000002,125,302
124,1,124,47,129,01639778,47129,Morgan,Morgan County,06,H1,G4020,314,28940, ,A,1352439646.000000000000000,823018.000000000000000,+36.1386970,-084.6392616,124,0,-84.688000000000002,36.188000000000002,90,323
125,1,125,46,043,01266978,46043,Douglas,Douglas County,06,H1,G4020, , , ,A,1118358767.000000000000000,4832944.000000000000000,+43.3915064,-098.3584331,125,0,-98.313000000000002,43.438000000000002,148,214
126,1,126,24,047,01668802,24047,Worcester,Worcester County,06,H1,G4020, ,41540, ,A,1212832597.000000000000000,586845178.000000000000000,+38.2221332,-075.3099315,126,0,-75.313000000000002,38.188000000000002,106,398
127,1,127,17,185,00424293,17185,Wabash,Wabash County,06,H1,G4020, , , ,A,578224627.000000000000000,11012015.000000000000000,+38.4458209,-087.8391674,127,0,-87.813000000000002,38.438000000000002,108,298
128,1,128,18,069,00450361,18069,Huntington,Huntington County,06,H1,G4020,258,26540, ,A,991057049.000000000000000,13133342.000000000000000,+40.8263938,-085.4785975,128,0,-85.438000000000002,40.813000000000002,127,317
129,1,129,21,209,00516951,21209,Scott,Scott County,06,H1,G4020,336,30460, ,A,729781719.000000000000000,9487693.000000000000000,+38.2898822,-084.5793761,129,0,-84.563000000000002,38.313000000000002,107,324
130,1,130,19,053,00465215,19053,Decatur,Decatur County,06,H1,G4020, , , ,A,1377567314.000000000000000,4140764.000000000000000,+40.7363787,-093.7845799,130,0,-93.813000000000002,40.688000000000002,126,250
131,1,131,18,169,00450399,18169,Wabash,Wabash County,06,H1,G4020, ,47340, ,A,1068205084.000000000000000,22117118.000000000000000,+40.8437475,-085.7951915,131,0,-85.813000000000002,40.813000000000002,127,314
132,1,132,18,003,00450402,18003,Allen,Allen County,06,H1,G4020,258,23060, ,A,1702454342.000000000000000,6999605.000000000000000,+41.0918553,-085.0722302,132,0,-85.063000000000002,41.063000000000002,129,320
133,1,133,18,099,00450372,18099,Marshall,Marshall County,06,H1,G4020,515,38500, ,A,1148996723.000000000000000,15831838.000000000000000,+41.3250032,-086.2690363,133,0,-86.313000000000002,41.313000000000002,131,310
134,1,134,31,171,00835907,31171,Thomas,Thomas County,06,H1,G4020, , , ,A,1846403658.000000000000000,2028358.000000000000000,+41.8486202,-100.5069105,134,0,-100.563000000000002,41.938000000000002,136,196
135,1,135,38,085,01034208,38085,Sioux,Sioux County,06,H1,G4020, ,13900, ,A,2833690974.000000000000000,88449900.000000000000000,+46.1106181,-101.0612840,135,0,-101.063000000000002,46.063000000000002,169,192
136,1,136,48,127,01383849,48127,Dimmit,Dimmit County,06,H1,G4020, , , ,A,3441795365.000000000000000,14576538.000000000000000,+28.4235871,-099.7658713,136,0,-99.813000000000002,28.437999999999999,28,202
137,1,137,27,045,00659468,27045,Fillmore,Fillmore County,06,H1,G4020,462,40340, ,A,2230746823.000000000000000,2055507.000000000000000,+43.6791869,-092.0939369,137,0,-92.063000000000002,43.688000000000002,150,264
138,1,138,45,023,01247988,45023,Chester,Chester County,06,H1,G4020,172,16740, ,A,1503893316.000000000000000,14261786.000000000000000,+34.6893424,-081.1612488,138,0,-81.188000000000002,34.688000000000002,78,351
139,1,139,27,073,00659482,27073,Lac qui Parle,Lac qui Parle County,06,H1,G4020, , , ,A,1981394520.000000000000000,33643131.000000000000000,+44.9998572,-096.1768376,139,0,-96.188000000000002,44.938000000000002,160,231
140,1,140,49,005,01448017,49005,Cache,Cache County,06,H1,G4020, ,30860, ,A,3016670856.000000000000000,21097698.000000000000000,+41.7341676,-111.7445680,140,0,-111.688000000000002,41.688000000000002,134,107
141,1,141,55,093,01581107,55093,Pierce,Pierce County,06,H1,G4020,378,33460, ,A,1486126051.000000000000000,46825858.000000000000000,+44.7253365,-092.4262793,141,0,-92.438000000000002,44.688000000000002,158,261
142,1,142,13,049,00357747,13049,Charlton,Charlton County,06,H1,G4020, , , ,A,2003702672.000000000000000,22676200.000000000000000,+30.7799036,-082.1396442,142,0,-82.188000000000002,30.812999999999999,47,343
143,1,143,13,233,00343585,13233,Polk,Polk County,06,H1,G4020,122,16340, ,A,803751977.000000000000000,4688357.000000000000000,+33.9960153,-085.1883384,143,0,-85.188000000000002,34.063000000000002,73,319
144,1,144,17,113,01784833,17113,McLean,McLean County,06,H1,G4020,145,14010, ,A,3064581023.000000000000000,7842778.000000000000000,+40.4945594,-088.8445391,144,0,-88.813000000000002,40.438000000000002,124,290
145,1,145,23,001,00581286,23001,Androscoggin,Androscoggin County,06,H1,G4020,438,30340, ,A,1211961731.000000000000000,75575386.000000000000000,+44.1676811,-070.2074347,145,0,-70.188000000000002,44.188000000000002,154,439
146,1,146,16,055,00395661,16055,Kootenai,Kootenai County,06,H1,G4020,518,17660, ,A,3205258021.000000000000000,185023431.000000000000000,+47.6771129,-116.6949184,146,0,-116.688000000000002,47.688000000000002,182,67
147,1,147,32,003,00863600,32003,Clark,Clark County,06,H1,G4020,332,29820, ,A,20439281450.000000000000000,438376844.000000000000000,+36.2142575,-115.0138120,147,0,-115.063000000000002,36.188000000000002,90,80
148,1,148,20,147,00485037,20147,Phillips,Phillips County,06,H1,G4020, , , ,A,2294395642.000000000000000,22493382.000000000000000,+39.7845058,-099.3421498,148,0,-99.313000000000002,39.813000000000002,119,206
149,1,149,31,089,00835866,31089,Holt,Holt County,06,H1,G4020, , , ,A,6248083634.000000000000000,13201503.000000000000000,+42.4592867,-098.7847662,149,0,-98.813000000000002,42.438000000000002,140,210
150,1,150,29,101,00758505,29101,Johnson,Johnson County,06,H1,G4020,312,47660, ,A,2147833558.000000000000000,10122996.000000000000000,+38.7415280,-093.8118634,150,0,-93.813000000000002,38.688000000000002,110,250
151,1,151,55,063,01581091,55063,La Crosse,La Crosse County,06,H1,G4020, ,29100, ,A,1170076495.000000000000000,73110306.000000000000000,+43.9082222,-091.1117584,151,0,-91.063000000000002,43.938000000000002,152,272
152,1,152,22,021,00558477,22021,Caldwell,Caldwell Parish,15,H1,G4020, , , ,A,1371203831.000000000000000,29277303.000000000000000,+32.1012195,-092.1142311,152,0,-92.063000000000002,32.063000000000002,57,264
153,1,153,21,061,00516877,21061,Edmonson,Edmonson County,06,H1,G4020,150,14540, ,A,784468319.000000000000000,13258106.000000000000000,+37.2275136,-086.2180153,153,0,-86.188000000000002,37.188000000000002,98,311
154,1,154,17,005,00424204,17005,Bond,Bond County,06,H1,G4020,476,41180, ,A,984918649.000000000000000,6426353.000000000000000,+38.8859240,-089.4365916,154,0,-89.438000000000002,38.938000000000002,112,285
155,1,155,17,009,00424206,17009,Brown,Brown County,06,H1,G4020, , , ,A,791518279.000000000000000,4139308.000000000000000,+39.9620694,-090.7503095,155,0,-90.688000000000002,39.938000000000002,120,275
156,1,156,27,085,00659491,27085,McLeod,McLeod County,06,H1,G4020,378,26780, ,A,1272940264.000000000000000,36370228.000000000000000,+44.8216571,-094.2723231,156,0,-94.313000000000002,44.813000000000002,159,246
157,1,157,55,033,01581076,55033,Dunn,Dunn County,06,H1,G4020,232,32860, ,A,2201882935.000000000000000,35592324.000000000000000,+44.9477454,-091.8976612,157,0,-91.938000000000002,44.938000000000002,160,265
158,1,158,08,027,00198129,08027,Custer,Custer County,06,H1,G4020, , , ,A,1913031958.000000000000000,3364151.000000000000000,+38.1019939,-105.3735148,158,0,-105.313000000000002,38.063000000000002,105,158
159,1,159,29,123,00758515,29123,Madison,Madison County,06,H1,G4020, , , ,A,1280463342.000000000000000,8312953.000000000000000,+37.4732347,-090.3454526,159,0,-90.313000000000002,37.438000000000002,100,278
160,1,160,48,353,01383962,48353,Nolan,Nolan County,06,H1,G4020, ,45020, ,A,2362061742.000000000000000,5052158.000000000000000,+32.3123379,-100.4181078,160,0,-100.438000000000002,32.313000000000002,59,197
161,1,161,42,127,01213692,42127,Wayne,Wayne County,06,H1,G4020, , , ,A,1879249061.000000000000000,64832669.000000000000000,+41.6470068,-075.2931930,161,0,-75.313000000000002,41.688000000000002,134,398
162,1,162,36,091,00974143,36091,Saratoga,Saratoga County,06,H1,G4020,104,10580, ,A,2097880370.000000000000000,87571838.000000000000000,+43.1061353,-073.8553872,162,0,-73.813000000000002,43.063000000000002,145,410
163,1,163,48,041,01383806,48041,Brazos,Brazos County,06,H1,G4020, ,17780, ,A,1516471988.000000000000000,14824446.000000000000000,+30.6567132,-096.3023935,163,0,-96.313000000000002,30.687999999999999,46,230
164,1,164,40,095,01101832,40095,Marshall,Marshall County,06,H1,G4020, , , ,A,962336585.000000000000000,143420175.000000000000000,+34.0270068,-096.7705330,164,0,-96.813000000000002,34.063000000000002,73,226
165,1,165,24,001,01713506,24001,Allegany,Allegany County,06,H1,G4020, ,19060, ,A,1093331712.000000000000000,14931771.000000000000000,+39.6123134,-078.7031037,165,0,-78.688000000000002,39.563000000000002,117,371
166,1,166,54,103,01717836,54103,Wetzel,Wetzel County,06,H1,G4020, , , ,A,927380674.000000000000000,8458366.000000000000000,+39.6006015,-080.6281566,166,0,-80.688000000000002,39.563000000000002,117,355
167,1,167,55,053,01581086,55053,Jackson,Jackson County,06,H1,G4020, , , ,A,2558240018.000000000000000,32985363.000000000000000,+44.3263310,-090.7974909,167,0,-90.813000000000002,44.313000000000002,155,274
168,1,168,41,007,01135846,41007,Clatsop,Clatsop County,06,H1,G4020, ,11820, ,A,2145196270.000000000000000,661305228.000000000000000,+46.0245092,-123.7050140,168,0,-123.688000000000002,46.063000000000002,169,11
169,1,169,53,041,01531927,53041,Lewis,Lewis County,06,H1,G4020,500,16500, ,A,6223151001.000000000000000,86954130.000000000000000,+46.5800714,-122.3774443,169,0,-122.438000000000002,46.563000000000002,173,21
170,1,170,36,003,00974100,36003,Allegany,Allegany County,06,H1,G4020, , , ,A,2665875177.000000000000000,13153776.000000000000000,+42.2478532,-078.0261531,170,0,-78.063000000000002,42.313000000000002,139,376
171,1,171,19,031,00465205,19031,Cedar,Cedar County,06,H1,G4020, , , ,A,1500730782.000000000000000,6385832.000000000000000,+41.7723600,-091.1326105,171,0,-91.188000000000002,41.813000000000002,135,271
172,1,172,18,117,00451681,18117,Orange,Orange County,06,H1,G4020, , , ,A,1031786463.000000000000000,25425748.000000000000000,+38.5473812,-086.4892570,172,0,-86.438000000000002,38.563000000000002,109,309
173,1,173,13,089,01687424,13089,DeKalb,DeKalb County,06,H1,G4020,122,12060, ,A,693144670.000000000000000,9191912.000000000000000,+33.7706611,-084.2263432,173,0,-84.188000000000002,33.813000000000002,71,327
174,1,174,13,227,01673011,13227,Pickens,Pickens County,06,H1,G4020,122,12060, ,A,601027940.000000000000000,1693768.000000000000000,+34.4568044,-084.4903326,174,0,-84.438000000000002,34.438000000000002,76,325
175,1,175,30,015,01719619,30015,Chouteau,Chouteau County,06,H1,G4020, , , ,A,10288824961.000000000000000,62565296.000000000000000,+47.8868343,-110.4362004,175,0,-110.438000000000002,47.938000000000002,184,117
176,1,176,31,017,00835830,31017,Brown,Brown County,06,H1,G4020, , , ,A,3163296235.000000000000000,9814399.000000000000000,+42.3595618,-099.9239198,176,0,-99.938000000000002,42.438000000000002,140,201
177,1,177,47,013,01639728,47013,Campbell,Campbell County,06,H1,G4020,314,28940, ,A,1243615773.000000000000000,46494677.000000000000000,+36.4015922,-084.1592495,177,0,-84.188000000000002,36.438000000000002,92,327
178,1,178,37,069,01008553,37069,Franklin,Franklin County,06,H1,G4020,450,39580, ,A,1273631713.000000000000000,7304032.000000000000000,+36.0882406,-078.2830903,178,0,-78.313000000000002,36.063000000000002,89,374
179,1,179,24,510,01702381,24510,Baltimore,Baltimore city,25,C7,G4020,548,12580, ,F,209643563.000000000000000,28767622.000000000000000,+39.3000324,-076.6104761,179,0,-76.563000000000002,39.313000000000002,115,388
180,1,180,20,111,00485020,20111,Lyon,Lyon County,06,H1,G4020, ,21380, ,A,2194957493.000000000000000,20562422.000000000000000,+38.4554978,-096.1615888,180,0,-96.188000000000002,38.438000000000002,108,231
181,1,181,19,027,00465203,19027,Carroll,Carroll County,06,H1,G4020, ,16140, ,A,1474835092.000000000000000,2145349.000000000000000,+42.0394920,-094.8676471,181,0,-94.813000000000002,42.063000000000002,137,242
182,1,182,22,107,00559509,22107,Tensas,Tensas Parish,15,H1,G4020, , , ,A,1561204507.000000000000000,99471076.000000000000000,+32.0014894,-091.3425760,182,0,-91.313000000000002,32.063000000000002,57,270
183,1,183,47,123,01639776,47123,Monroe,Monroe County,06,H1,G4020, , , ,A,1646364006.000000000000000,43812886.000000000000000,+35.4478181,-084.2497050,183,0,-84.313000000000002,35.438000000000002,84,326
184,1,184,20,075,00485327,20075,Hamilton,Hamilton County,06,H1,G4020, , , ,A,2580958344.000000000000000,2893322.000000000000000,+37.9952438,-101.7936887,184,0,-101.813000000000002,37.938000000000002,104,186
185,1,185,19,151,00465264,19151,Pocahontas,Pocahontas County,06,H1,G4020, , , ,A,1495047142.000000000000000,3666530.000000000000000,+42.7340333,-094.6782789,185,0,-94.688000000000002,42.688000000000002,142,243
186,1,186,16,045,00395442,16045,Gem,Gem County,06,H1,G4020,147,14260, ,A,1449792319.000000000000000,12495804.000000000000000,+44.0614727,-116.3987839,186,0,-116.438000000000002,44.063000000000002,153,69
187,1,187,05,063,00069163,05063,Independence,Independence County,06,H1,G4020, ,12900, ,A,1978631574.000000000000000,19593589.000000000000000,+35.7374992,-091.5599423,187,0,-91.563000000000002,35.688000000000002,86,268
188,1,188,05,085,00069164,05085,Lonoke,Lonoke County,06,H1,G4020,340,30780, ,A,1996628025.000000000000000,82740471.000000000000000,+34.7551137,-091.8941320,188,0,-91.938000000000002,34.813000000000002,79,265
189,1,189,18,111,00450376,18111,Newton,Newton County,06,H1,G4020,176,16980,23844,A,1040539918.000000000000000,4349506.000000000000000,+40.9623985,-087.4021716,189,0,-87.438000000000002,40.938000000000002,128,301
190,1,190,13,119,00349324,13119,Franklin,Franklin County,06,H1,G4020, , , ,A,677294070.000000000000000,12811302.000000000000000,+34.3750807,-083.2280639,190,0,-83.188000000000002,34.313000000000002,75,335
191,1,191,12,051,00307626,12051,Hendry,Hendry County,06,H1,G4020, ,17500, ,A,2994620710.000000000000000,87035817.000000000000000,+26.5399670,-081.1521142,191,0,-81.188000000000002,26.562999999999999,13,351
192,1,192,13,265,00347654,13265,Taliaferro,Taliaferro County,06,H1,G4020, , , ,A,504031039.000000000000000,1915743.000000000000000,+33.5593190,-082.8752721,192,0,-82.938000000000002,33.563000000000002,69,337
193,1,193,48,245,01383908,48245,Jefferson,Jefferson County,06,H1,G4020, ,13140, ,A,2269793052.000000000000000,611960906.000000000000000,+29.8539997,-094.1493306,193,0,-94.188000000000002,29.812999999999999,39,247
194,1,194,30,059,01719600,30059,Meagher,Meagher County,06,H1,G4020, , , ,A,6194911314.000000000000000,7474581.000000000000000,+46.5856996,-110.9217396,194,0,-110.938000000000002,46.563000000000002,173,113
195,1,195,08,067,00198148,08067,La Plata,La Plata County,06,H1,G4020, ,20420, ,A,4376522002.000000000000000,25375721.000000000000000,+37.2873673,-107.8397178,195,0,-107.813000000000002,37.313000000000002,99,138
196,1,196,48,027,01383799,48027,Bell,Bell County,06,H1,G4020, ,28660, ,A,2721755826.000000000000000,95727690.000000000000000,+31.0423136,-097.4814002,196,0,-97.438000000000002,31.062999999999999,49,221
197,1,197,28,069,00695758,28069,Kemper,Kemper County,06,H1,G4020, ,32940, ,A,1984403113.000000000000000,2182350.000000000000000,+32.7501361,-088.6256306,197,0,-88.688000000000002,32.813000000000002,63,291
198,1,198,05,019,00066845,05019,Clark,Clark County,06,H1,G4020, ,11660, ,A,2243130473.000000000000000,43387485.000000000000000,+34.0533162,-093.1762085,198,0,-93.188000000000002,34.063000000000002,73,255
199,1,199,41,035,01155134,41035,Klamath,Klamath County,06,H1,G4020, ,28900, ,A,15391613763.000000000000000,503712593.000000000000000,+42.6837613,-121.6461682,199,0,-121.688000000000002,42.688000000000002,142,27
200,1,200,36,075,00974136,36075,Oswego,Oswego County,06,H1,G4020,532,45060, ,A,2464746080.000000000000000,933480216.000000000000000,+43.4614431,-076.2092618,200,0,-76.188000000000002,43.438000000000002,148,391
201,1,201,01,019,00161535,01019,Cherokee,Cherokee County,06,H1,G4020, , , ,A,1434228753.000000000000000,119702920.000000000000000,+34.0695153,-085.6542417,201,0,-85.563000000000002,34.188000000000002,74,316
202,1,202,48,019,01383795,48019,Bandera,Bandera County,06,H1,G4020, ,41700, ,A,2048666851.000000000000000,17288354.000000000000000,+29.7563890,-099.2482849,202,0,-99.188000000000002,29.687999999999999,38,207
203,1,203,30,087,01716795,30087,Rosebud,Rosebud County,06,H1,G4020, , , ,A,12971010170.000000000000000,44234236.000000000000000,+46.1732331,-106.6667462,203,0,-106.688000000000002,46.188000000000002,170,147
204,1,204,35,059,00929115,35059,Union,Union County,06,H1,G4020, , , ,A,9903868964.000000000000000,18464199.000000000000000,+36.4880853,-103.4757229,204,0,-103.438000000000002,36.438000000000002,92,173
205,1,205,26,153,01623017,26153,Schoolcraft,Schoolcraft County,06,H1,G4020, , , ,A,3033697431.000000000000000,1845664144.000000000000000,+46.0211217,-086.1970290,205,0,-86.188000000000002,46.063000000000002,169,311
206,1,206,36,111,00974153,36111,Ulster,Ulster County,06,H1,G4020,408,28740, ,A,2911757797.000000000000000,94596954.000000000000000,+41.9472124,-074.2654582,206,0,-74.313000000000002,41.938000000000002,136,406
207,1,207,34,007,00882273,34007,Camden,Camden County,06,H1,G4020,428,37980,15804,A,573281541.000000000000000,15731653.000000000000000,+39.8023521,-074.9612507,207,0,-74.938000000000002,39.813000000000002,119,401
208,1,208,17,083,00424243,17083,Jersey,Jersey County,06,H1,G4020,476,41180, ,A,956433111.000000000000000,20324168.000000000000000,+39.0801918,-090.3613647,208,0,-90.313000000000002,39.063000000000002,113,278
209,1,209,51,085,01480132,51085,Hanover,Hanover County,06,H1,G4020, ,40060, ,A,1211828533.000000000000000,12648364.000000000000000,+37.7602149,-077.4913168,209,0,-77.438000000000002,37.813000000000002,103,381
210,1,210,20,199,00485060,20199,Wallace,Wallace County,06,H1,G4020, , , ,A,2366348295.000000000000000,140932.000000000000000,+38.9266259,-101.7711031,210,0,-101.813000000000002,38.938000000000002,112,186
211,1,211,26,003,01622944,26003,Alger,Alger County,06,H1,G4020, , , ,A,2369911333.000000000000000,10703533792.000000000000000,+47.0800765,-086.5641076,211,1,-86.563000000000002,46.438000000000002,172,308
212,1,212,05,049,00066854,05049,Fulton,Fulton County,06,H1,G4020, , , ,A,1601111649.000000000000000,5526927.000000000000000,+36.3836192,-091.8196636,212,0,-91.813000000000002,36.438000000000002,92,266
213,1,213,48,215,01383893,48215,Hidalgo,Hidalgo County,06,H1,G4020,365,32580, ,A,4068610437.000000000000000,31102594.000000000000000,+26.3963839,-098.1809900,213,0,-98.188000000000002,26.437999999999999,12,215
214,1,214,37,155,01026130,37155,Robeson,Robeson County,06,H1,G4020,246,31300, ,A,2453425443.000000000000000,5097482.000000000000000,+34.6392096,-079.1008811,214,0,-79.063000000000002,34.688000000000002,78,368
215,1,215,26,123,01623004,26123,Newaygo,Newaygo County,06,H1,G4020, , , ,A,2112606166.000000000000000,119183856.000000000000000,+43.5627086,-085.7914227,215,0,-85.813000000000002,43.563000000000002,149,314
216,1,216,41,049,01135860,41049,Morrow,Morrow County,06,H1,G4020, ,25840, ,A,5259049905.000000000000000,44372295.000000000000000,+45.4254956,-119.6023111,216,0,-119.563000000000002,45.438000000000002,164,44
217,1,217,27,153,00659521,27153,Todd,Todd County,06,H1,G4020, , , ,A,2447451028.000000000000000,89444026.000000000000000,+46.0665694,-094.9005758,217,0,-94.938000000000002,46.063000000000002,169,241
218,1,218,05,083,00082850,05083,Logan,Logan County,06,H1,G4020, , , ,A,1834026181.000000000000000,60685645.000000000000000,+35.2186538,-093.7209102,218,0,-93.688000000000002,35.188000000000002,82,251
219,1,219,37,109,01008569,37109,Lincoln,Lincoln County,06,H1,G4020,172,16740, ,A,766177348.000000000000000,23377500.000000000000000,+35.4884913,-081.2268916,219,0,-81.188000000000002,35.438000000000002,84,351
220,1,220,05,091,00069166,05091,Miller,Miller County,06,H1,G4020, ,45500, ,A,1620232433.000000000000000,31271179.000000000000000,+33.3055054,-093.9015018,220,0,-93.938000000000002,33.313000000000002,67,249
221,1,221,12,095,00295750,12095,Orange,Orange County,06,H1,G4020,422,36740, ,A,2339138134.000000000000000,259141175.000000000000000,+28.5144350,-081.3232950,221,0,-81.313000000000002,28.562999999999999,29,350
222,1,222,08,111,00198171,08111,San Juan,San Juan County,06,H1,G4020, , , ,A,1003660601.000000000000000,2035929.000000000000000,+37.7810745,-107.6702566,222,0,-107.688000000000002,37.813000000000002,103,139
223,1,223,16,041,00395585,16041,Franklin,Franklin County,06,H1,G4020, ,30860, ,A,1717209197.000000000000000,12155421.000000000000000,+42.1736093,-111.8229653,223,0,-111.813000000000002,42.188000000000002,138,106
224,1,224,13,045,00326650,13045,Carroll,Carroll County,06,H1,G4020,122,12060, ,A,1292475855.000000000000000,12301426.000000000000000,+33.5822366,-085.0805272,224,0,-85.063000000000002,33.563000000000002,69,320
225,1,225,20,161,00485044,20161,Riley,Riley County,06,H1,G4020,358,31740, ,A,1579167161.000000000000000,31952420.000000000000000,+39.2912114,-096.7274889,225,0,-96.688000000000002,39.313000000000002,115,227
226,1,226,48,413,01383992,48413,Schleicher,Schleicher County,06,H1,G4020, , , ,A,3394546071.000000000000000,87401.000000000000000,+30.8962331,-100.5272161,226,0,-100.563000000000002,30.937999999999999,48,196
227,1,227,51,167,01497573,51167,Russell,Russell County,06,H1,G4020, , , ,A,1226378115.000000000000000,7588460.000000000000000,+36.9334198,-082.0959342,227,0,-82.063000000000002,36.938000000000002,96,344
228,1,228,37,027,01008541,37027,Caldwell,Caldwell County,06,H1,G4020,280,25860, ,A,1222192511.000000000000000,7038401.000000000000000,+35.9579149,-081.5300023,228,0,-81.563000000000002,35.938000000000002,88,348
229,1,229,16,065,00394803,16065,Madison,Madison County,06,H1,G4020,292,39940, ,A,1215396379.000000000000000,10500827.000000000000000,+43.7886140,-111.6569925,229,0,-111.688000000000002,43.813000000000002,151,107
230,1,230,18,173,00450335,18173,Warrick,Warrick County,06,H1,G4020, ,21780, ,A,996664713.000000000000000,16155577.000000000000000,+38.0977282,-087.2720486,230,0,-87.313000000000002,38.063000000000002,105,302
231,1,231,21,001,00516847,21001,Adair,Adair County,06,H1,G4020, , , ,A,1049678094.000000000000000,18430783.000000000000000,+37.1055589,-085.2813796,231,0,-85.313000000000002,37.063000000000002,97,318
232,1,232,21,077,00516885,21077,Gallatin,Gallatin County,06,H1,G4020,178,17140, ,A,254699793.000000000000000,16518583.000000000000000,+38.7601027,-084.8621525,232,0,-84.813000000000002,38.813000000000002,111,322
233,1,233,21,097,00516895,21097,Harrison,Harrison County,06,H1,G4020, , , ,A,793480924.000000000000000,9057368.000000000000000,+38.4445776,-084.3341313,233,0,-84.313000000000002,38.438000000000002,108,326
234,1,234,23,023,00581297,23023,Sagadahoc,Sagadahoc County,06,H1,G4020,438,38860, ,A,657803472.000000000000000,300569614.000000000000000,+43.9166447,-069.8443260,234,0,-69.813000000000002,43.938000000000002,152,442
235,1,235,30,097,01719569,30097,Sweet Grass,Sweet Grass County,06,H1,G4020, , , ,A,4805607292.000000000000000,17665081.000000000000000,+45.8112917,-109.9447960,235,0,-109.938000000000002,45.813000000000002,167,121
236,1,236,48,181,01383876,48181,Grayson,Grayson County,06,H1,G4020,206,43300, ,A,2415995947.000000000000000,120112446.000000000000000,+33.6245240,-096.6756930,236,0,-96.688000000000002,33.688000000000002,70,227
237,1,237,42,059,01214033,42059,Greene,Greene County,06,H1,G4020, , , ,A,1491700969.000000000000000,5253864.000000000000000,+39.8477067,-080.2256552,237,0,-80.188000000000002,39.813000000000002,119,359
238,1,238,20,051,00484995,20051,Ellis,Ellis County,06,H1,G4020, ,25700, ,A,2330762291.000000000000000,1197085.000000000000000,+38.9145967,-099.3173133,238,0,-99.313000000000002,38.938000000000002,112,206
239,1,239,01,065,00161558,01065,Hale,Hale County,06,H1,G4020, ,46220, ,A,1667907107.000000000000000,32423356.000000000000000,+32.7527958,-087.6230608,239,0,-87.688000000000002,32.813000000000002,63,299
240,1,240,01,105,00161579,01105,Perry,Perry County,06,H1,G4020, , , ,A,1863885725.000000000000000,10952676.000000000000000,+32.6390053,-087.2938269,240,0,-87.313000000000002,32.688000000000002,62,302
241,1,241,01,033,00161542,01033,Colbert,Colbert County,06,H1,G4020, ,22520, ,A,1534875463.000000000000000,80027136.000000000000000,+34.7031120,-087.8014569,241,0,-87.813000000000002,34.688000000000002,78,298
242,1,242,20,151,00485039,20151,Pratt,Pratt County,06,H1,G4020, , , ,A,1903740958.000000000000000,1771939.000000000000000,+37.6475943,-098.7401199,242,0,-98.688000000000002,37.688000000000002,102,211
243,1,243,21,017,00516855,21017,Bourbon,Bourbon County,06,H1,G4020,336,30460, ,A,750370820.000000000000000,4849018.000000000000000,+38.2025623,-084.2098602,243,0,-84.188000000000002,38.188000000000002,106,327
244,1,244,47,149,01639787,47149,Rutherford,Rutherford County,06,H1,G4020,400,34980, ,A,1604162229.000000000000000,12132094.000000000000000,+35.8433688,-086.4172127,244,0,-86.438000000000002,35.813000000000002,87,309
245,1,245,13,075,00343878,13075,Cook,Cook County,06,H1,G4020, , , ,A,588450813.000000000000000,15542061.000000000000000,+31.1525157,-083.4294448,245,0,-83.438000000000002,31.187999999999999,50,333
246,1,246,20,101,00485015,20101,Lane,Lane County,06,H1,G4020, , , ,A,1858093492.000000000000000,551220.000000000000000,+38.4812863,-100.4661853,246,0,-100.438000000000002,38.438000000000002,108,197
247,1,247,40,059,01101817,40059,Harper,Harper County,06,H1,G4020, , , ,A,2691041192.000000000000000,5259447.000000000000000,+36.8003504,-099.6628052,247,0,-99.688000000000002,36.813000000000002,95,203
248,1,248,17,147,00424275,17147,Piatt,Piatt County,06,H1,G4020, ,16580, ,A,1137445090.000000000000000,756346.000000000000000,+40.0090561,-088.5923282,248,0,-88.563000000000002,40.063000000000002,121,292
249,1,249,48,107,01383839,48107,Crosby,Crosby County,06,H1,G4020,352,31180, ,A,2331503437.000000000000000,3873557.000000000000000,+33.6091440,-101.2987099,249,0,-101.313000000000002,33.563000000000002,69,190
250,1,250,01,063,00161557,01063,Greene,Greene County,06,H1,G4020, , , ,A,1675782063.000000000000000,33416143.000000000000000,+32.8444965,-087.9642005,250,0,-87.938000000000002,32.813000000000002,63,297
251,1,251,16,033,00399755,16033,Clark,Clark County,06,H1,G4020, , , ,A,4566524491.000000000000000,2476454.000000000000000,+44.2902180,-112.3546128,251,0,-112.313000000000002,44.313000000000002,155,102
252,1,252,19,109,00465243,19109,Kossuth,Kossuth County,06,H1,G4020, , , ,A,2519361813.000000000000000,4125592.000000000000000,+43.2124777,-094.2139830,252,0,-94.188000000000002,43.188000000000002,146,247
253,1,253,38,013,01034235,38013,Burke,Burke County,06,H1,G4020, , , ,A,2858266385.000000000000000,65700367.000000000000000,+48.7864534,-102.5200874,253,0,-102.563000000000002,48.813000000000002,191,180
254,1,254,37,063,01008550,37063,Durham,Durham County,06,H1,G4020,450,20500, ,A,741761173.000000000000000,29701774.000000000000000,+36.0338223,-078.8781198,254,0,-78.938000000000002,36.063000000000002,89,369
255,1,255,19,085,00465231,19085,Harrison,Harrison County,06,H1,G4020,420,36540, ,A,1804808356.000000000000000,12417698.000000000000000,+41.6885844,-095.8271491,255,0,-95.813000000000002,41.688000000000002,134,234
256,1,256,31,103,00835873,31103,Keya Paha,Keya Paha County,06,H1,G4020, , , ,A,2002257567.000000000000000,2192458.000000000000000,+42.8754803,-099.7183514,256,0,-99.688000000000002,42.938000000000002,144,203
257,1,257,19,187,00465282,19187,Webster,Webster County,06,H1,G4020, ,22700, ,A,1853586077.000000000000000,7278162.000000000000000,+42.4335786,-094.1758309,257,0,-94.188000000000002,42.438000000000002,140,247
258,1,258,17,151,00424277,17151,Pope,Pope County,06,H1,G4020, , , ,A,955109669.000000000000000,14328523.000000000000000,+37.4171687,-088.5423737,258,0,-88.563000000000002,37.438000000000002,100,292
259,1,259,47,159,01639791,47159,Smith,Smith County,06,H1,G4020,400,34980, ,A,814020549.000000000000000,28690300.000000000000000,+36.2566451,-085.9419149,259,0,-85.938000000000002,36.313000000000002,91,313
260,1,260,51,089,01502770,51089,Henry,Henry County,06,H1,G4020, ,32300, ,A,990272714.000000000000000,5281696.000000000000000,+36.7814785,-079.7592313,260,0,-79.813000000000002,36.688000000000002,94,362
261,1,261,51,510,01498415,51510,Alexandria,Alexandria city,25,C7,G4020,548,47900,47894,F,38679307.000000000000000,1070269.000000000000000,+38.8200709,-077.0840628,261,0,-77.063000000000002,38.813000000000002,111,384
262,1,262,19,101,00465239,19101,Jefferson,Jefferson County,06,H1,G4020, ,21840, ,A,1127999784.000000000000000,3524824.000000000000000,+41.0063841,-091.9674402,262,0,-91.938000000000002,41.063000000000002,129,265
263,1,263,30,049,00793926,30049,Lewis and Clark,Lewis and Clark County,06,H1,G4020, ,25740, ,A,8957160027.000000000000000,101500820.000000000000000,+47.1221055,-112.3828899,263,0,-112.438000000000002,47.063000000000002,177,101
264,1,264,49,013,01448021,49013,Duchesne,Duchesne County,06,H1,G4020, , , ,A,8379502703.000000000000000,38797815.000000000000000,+40.2893927,-110.4295838,264,0,-110.438000000000002,40.313000000000002,123,117
265,1,265,40,003,01101789,40003,Alfalfa,Alfalfa County,06,H1,G4020, , , ,A,2244107192.000000000000000,38546675.000000000000000,+36.7297032,-098.3234449,265,0,-98.313000000000002,36.688000000000002,94,214
266,1,266,48,119,01383846,48119,Delta,Delta County,06,H1,G4020, , , ,A,665174292.000000000000000,54666016.000000000000000,+33.3859329,-095.6733504,266,0,-95.688000000000002,33.438000000000002,68,235
267,1,267,47,169,01648581,47169,Trousdale,Trousdale County,06,H6,G4020,400,34980, ,C,296143587.000000000000000,5960710.000000000000000,+36.3930297,-086.1566909,267,0,-86.188000000000002,36.438000000000002,92,311
268,1,268,21,193,00516943,21193,Perry,Perry County,06,H1,G4020, , , ,A,879750403.000000000000000,7603771.000000000000000,+37.2412822,-083.2177723,268,0,-83.188000000000002,37.188000000000002,98,335
269,1,269,46,039,01265781,46039,Deuel,Deuel County,06,H1,G4020, , , ,A,1612756368.000000000000000,36065238.000000000000000,+44.7562899,-096.6902393,269,0,-96.688000000000002,44.813000000000002,159,227
270,1,270,41,029,01135853,41029,Jackson,Jackson County,06,H1,G4020,366,32780, ,A,7208499985.000000000000000,46860048.000000000000000,+42.4116284,-122.6756846,270,0,-122.688000000000002,42.438000000000002,140,19
271,1,271,48,507,01384039,48507,Zavala,Zavala County,06,H1,G4020, , , ,A,3360268880.000000000000000,11208707.000000000000000,+28.8646523,-099.7598304,271,0,-99.813000000000002,28.812999999999999,31,202
272,1,272,31,007,00835826,31007,Banner,Banner County,06,H1,G4020, ,42420, ,A,1932676697.000000000000000,397069.000000000000000,+41.5397495,-103.7262626,272,0,-103.688000000000002,41.563000000000002,133,171
273,1,273,19,121,00465249,19121,Madison,Madison County,06,H1,G4020,218,19780, ,A,1452999208.000000000000000,2983840.000000000000000,+41.3306216,-094.0151842,273,0,-94.063000000000002,41.313000000000002,131,248
274,1,274,12,011,00295753,12011,Broward,Broward County,06,H1,G4020,370,33100,22744,A,3120024303.000000000000000,306053086.000000000000000,+26.1935353,-080.4766834,274,0,-80.438000000000002,26.187999999999999,10,357
275,1,275,13,279,00345220,13279,Toombs,Toombs County,06,H1,G4020, ,47080, ,A,942770579.000000000000000,18094405.000000000000000,+32.1178118,-082.3306257,275,0,-82.313000000000002,32.063000000000002,57,342
276,1,276,26,151,01623016,26151,Sanilac,Sanilac County,06,H1,G4020, , , ,A,2493045473.000000000000000,1624882510.000000000000000,+43.4491547,-082.6428148,276,0,-82.688000000000002,43.438000000000002,148,339
277,1,277,48,397,01383984,48397,Rockwall,Rockwall County,06,H1,G4020,206,19100,19124,A,329205133.000000000000000,56076769.000000000000000,+32.8986766,-096.4044017,277,0,-96.438000000000002,32.938000000000002,64,229
278,1,278,26,163,01623022,26163,Wayne,Wayne County,06,H1,G4020,220,19820,19804,A,1585060122.000000000000000,157341390.000000000000000,+42.2846636,-083.2619533,278,0,-83.313000000000002,42.313000000000002,139,334
279,1,279,27,105,00659498,27105,Nobles,Nobles County,06,H1,G4020, ,49380, ,A,1852077339.000000000000000,19323570.000000000000000,+43.6776863,-095.7631323,279,0,-95.813000000000002,43.688000000000002,150,234
280,1,280,27,001,00663198,27001,Aitkin,Aitkin County,06,H1,G4020, , , ,A,4718271444.000000000000000,449535492.000000000000000,+46.6024464,-093.4197600,280,0,-93.438000000000002,46.563000000000002,173,253
281,1,281,38,071,01034215,38071,Ramsey,Ramsey County,06,H1,G4020, , , ,A,3074174337.000000000000000,295182394.000000000000000,+48.2661631,-098.7390310,281,0,-98.688000000000002,48.313000000000002,187,211
282,1,282,37,145,01008577,37145,Person,Person County,06,H1,G4020,450,20500, ,A,1016141549.000000000000000,31218720.000000000000000,+36.3863362,-078.9656441,282,0,-78.938000000000002,36.438000000000002,92,369
283,1,283,20,195,00485058,20195,Trego,Trego County,06,H1,G4020, , , ,A,2303731642.000000000000000,26281951.000000000000000,+38.9213022,-099.8654230,283,0,-99.813000000000002,38.938000000000002,112,202
284,1,284,28,151,00695796,28151,Washington,Washington County,06,H1,G4020, ,24740, ,A,1877069905.000000000000000,94495553.000000000000000,+33.2731740,-090.9444459,284,0,-90.938000000000002,33.313000000000002,67,273
285,1,285,48,133,01383852,48133,Eastland,Eastland County,06,H1,G4020, , , ,A,2399599303.000000000000000,14047796.000000000000000,+32.3246454,-098.8365596,285,0,-98.813000000000002,32.313000000000002,59,210
286,1,286,28,055,00695751,28055,Issaquena,Issaquena County,06,H1,G4020, , , ,A,1069782900.000000000000000,73507441.000000000000000,+32.7555393,-091.0035351,286,0,-90.938000000000002,32.688000000000002,62,273
287,1,287,48,123,01383844,48123,DeWitt,DeWitt County,06,H1,G4020, , , ,A,2354237945.000000000000000,3919919.000000000000000,+29.0823457,-097.3616543,287,0,-97.313000000000002,29.062999999999999,33,222
288,1,288,48,005,01383788,48005,Angelina,Angelina County,06,H1,G4020, ,31260, ,A,2066241599.000000000000000,173338077.000000000000000,+31.2519514,-094.6110558,288,0,-94.563000000000002,31.312999999999999,51,244
289,1,289,45,081,01248016,45081,Saluda,Saluda County,06,H1,G4020,192,17900, ,A,1172692435.000000000000000,23417452.000000000000000,+34.0052784,-081.7279033,289,0,-81.688000000000002,34.063000000000002,73,347
290,1,290,29,125,00758516,29125,Maries,Maries County,06,H1,G4020, , , ,A,1364869337.000000000000000,7636521.000000000000000,+38.1626154,-091.9236010,290,0,-91.938000000000002,38.188000000000002,106,265
291,1,291,05,001,00063755,05001,Arkansas,Arkansas County,06,H1,G4020, , , ,A,2560988637.000000000000000,116409463.000000000000000,+34.2895697,-091.3765466,291,0,-91.313000000000002,34.313000000000002,75,270
292,1,292,29,109,00758509,29109,Lawrence,Lawrence County,06,H1,G4020, , , ,A,1584391270.000000000000000,4249327.000000000000000,+37.1065898,-093.8305507,292,0,-93.813000000000002,37.063000000000002,97,250
293,1,293,51,540,01789068,51540,Charlottesville,Charlottesville city,25,C7,G4020, ,16820, ,F,26533566.000000000000000,47160.000000000000000,+38.0376579,-078.4853806,293,0,-78.438000000000002,38.063000000000002,105,373
294,1,294,17,011,00424207,17011,Bureau,Bureau County,06,H1,G4020,176,36860, ,A,2250785990.000000000000000,11578416.000000000000000,+41.4013043,-089.5283772,294,0,-89.563000000000002,41.438000000000002,132,284
295,1,295,39,145,01074085,39145,Scioto,Scioto County,06,H1,G4020,170,39020, ,A,1580451539.000000000000000,15363856.000000000000000,+38.8148886,-082.9986750,295,0,-82.938000000000002,38.813000000000002,111,337
296,1,296,37,115,01025834,37115,Madison,Madison County,06,H1,G4020,120,11700, ,A,1164497728.000000000000000,4840762.000000000000000,+35.8640782,-082.7127314,296,0,-82.688000000000002,35.813000000000002,87,339
297,1,297,16,053,00395662,16053,Jerome,Jerome County,06,H1,G4020, ,46300, ,A,1547386409.000000000000000,13152108.000000000000000,+42.6913953,-114.2620858,297,0,-114.313000000000002,42.688000000000002,142,86
298,1,298,39,163,01074093,39163,Vinton,Vinton County,06,H1,G4020, , , ,A,1068008706.000000000000000,6781201.000000000000000,+39.2520418,-082.4859614,298,0,-82.438000000000002,39.313000000000002,115,341
299,1,299,48,309,01383946,48309,McLennan,McLennan County,06,H1,G4020, ,47380, ,A,2686101576.000000000000000,59883892.000000000000000,+31.5494930,-097.2014721,299,0,-97.188000000000002,31.562999999999999,53,223
300,1,300,16,037,00399758,16037,Custer,Custer County,06,H1,G4020, , , ,A,12748200986.000000000000000,42566923.000000000000000,+44.2733510,-114.2522675,300,0,-114.313000000000002,44.188000000000002,154,86
301,1,301,19,089,00465233,19089,Howard,Howard County,06,H1,G4020, , , ,A,1225706339.000000000000000,927963.000000000000000,+43.3653125,-092.3219084,301,0,-92.313000000000002,43.313000000000002,147,262
302,1,302,12,099,00295761,12099,Palm Beach,Palm Beach County,06,H1,G4020,370,33100,48424,A,5092730552.000000000000000,1079713751.000000000000000,+26.6491240,-080.4483739,302,0,-80.438000000000002,26.687999999999999,14,357
303,1,303,13,181,01688000,13181,Lincoln,Lincoln County,06,H1,G4020, ,12260, ,A,544880787.000000000000000,121516946.000000000000000,+33.7921507,-082.4482992,303,0,-82.438000000000002,33.813000000000002,71,341
304,1,304,01,013,00161532,01013,Butler,Butler County,06,H1,G4020, , , ,A,2011985458.000000000000000,2718248.000000000000000,+31.7516670,-086.6819689,304,0,-86.688000000000002,31.812999999999999,55,307
305,1,305,47,165,01639794,47165,Sumner,Sumner County,06,H1,G4020,400,34980, ,A,1371067660.000000000000000,35857190.000000000000000,+36.4734430,-086.4597975,305,0,-86.438000000000002,36.438000000000002,92,309
306,1,306,51,097,01480136,51097,King and Queen,King and Queen County,06,H1,G4020, , , ,A,816244563.000000000000000,28884077.000000000000000,+37.7143718,-076.9018551,306,0,-76.938000000000002,37.688000000000002,102,385
307,1,307,05,015,00066975,05015,Carroll,Carroll County,06,H1,G4020, , , ,A,1631597803.000000000000000,22434173.000000000000000,+36.3377742,-093.5416633,307,0,-93.563000000000002,36.313000000000002,91,252
308,1,308,51,820,01498443,51820,Waynesboro,Waynesboro city,25,C7,G4020,277,44420, ,F,38724176.000000000000000,411928.000000000000000,+38.0671571,-078.9014197,308,0,-78.938000000000002,38.063000000000002,105,369
309,1,309,41,051,01135861,41051,Multnomah,Multnomah County,06,H1,G4020,440,38900, ,A,1116597726.000000000000000,88213123.000000000000000,+45.5476932,-122.4171728,309,0,-122.438000000000002,45.563000000000002,165,21
310,1,310,47,061,01639748,47061,Grundy,Grundy County,06,H1,G4020, , , ,A,933548197.000000000000000,1753031.000000000000000,+35.3933855,-085.7103793,310,0,-85.688000000000002,35.438000000000002,84,315
311,1,311,27,057,00659474,27057,Hubbard,Hubbard County,06,H1,G4020, , , ,A,2398071535.000000000000000,190599026.000000000000000,+47.0955506,-094.9132898,311,0,-94.938000000000002,47.063000000000002,177,241
312,1,312,38,081,01035303,38081,Sargent,Sargent County,06,H1,G4020, , , ,A,2223531669.000000000000000,21728402.000000000000000,+46.1082063,-097.6300298,312,0,-97.688000000000002,46.063000000000002,169,219
313,1,313,36,089,00977309,36089,St. Lawrence,St. Lawrence County,06,H1,G4020, ,36300, ,A,6939259769.000000000000000,367915773.000000000000000,+44.4881125,-075.0743110,313,0,-75.063000000000002,44.438000000000002,156,400
314,1,314,29,179,00758544,29179,Reynolds,Reynolds County,06,H1,G4020, , , ,A,2093947210.000000000000000,15372862.000000000000000,+37.3608568,-090.9695158,314,0,-90.938000000000002,37.313000000000002,99,273
315,1,315,06,067,00277298,06067,Sacramento,Sacramento County,06,H1,G4020,472,40900, ,A,2499039655.000000000000000,76217822.000000000000000,+38.4500161,-121.3404408,315,0,-121.313000000000002,38.438000000000002,108,30
316,1,316,39,125,01074075,39125,Paulding,Paulding County,06,H1,G4020, , , ,A,1078561239.000000000000000,6245392.000000000000000,+41.1189483,-084.5821249,316,0,-84.563000000000002,41.063000000000002,129,324
317,1,317,18,179,00450337,18179,Wells,Wells County,06,H1,G4020,258,23060, ,A,953341274.000000000000000,5596377.000000000000000,+40.7352727,-085.2129742,317,0,-85.188000000000002,40.688000000000002,126,319
318,1,318,51,063,01494354,51063,Floyd,Floyd County,06,H1,G4020, ,13980, ,A,986572574.000000000000000,2190750.000000000000000,+36.9314381,-080.3503087,318,0,-80.313000000000002,36.938000000000002,96,358
319,1,319,06,083,00277306,06083,Santa Barbara,Santa Barbara County,06,H1,G4020, ,42200, ,A,7084000622.000000000000000,2729814515.000000000000000,+34.5370572,-120.0399729,319,0,-120.063000000000002,34.563000000000002,77,40
320,1,320,54,005,01550009,54005,Boone,Boone County,06,H1,G4020,170,16620, ,A,1298967373.000000000000000,4305976.000000000000000,+38.0228142,-081.7135390,320,0,-81.688000000000002,38.063000000000002,105,347
321,1,321,28,009,00695729,28009,Benton,Benton County,06,H1,G4020,368,32820, ,A,1053131400.000000000000000,5279183.000000000000000,+34.8105184,-089.2002848,321,0,-89.188000000000002,34.813000000000002,79,287
322,1,322,21,055,00516874,21055,Crittenden,Crittenden County,06,H1,G4020, , , ,A,932275951.000000000000000,28974004.000000000000000,+37.3581494,-088.1050103,322,0,-88.063000000000002,37.313000000000002,99,296
323,1,323,19,147,00465262,19147,Palo Alto,Palo Alto County,06,H1,G4020, , , ,A,1460391661.000000000000000,14437623.000000000000000,+43.0753374,-094.6690546,323,0,-94.688000000000002,43.063000000000002,145,243
324,1,324,19,159,00465268,19159,Ringgold,Ringgold County,06,H1,G4020, , , ,A,1386935176.000000000000000,8720332.000000000000000,+40.7353342,-094.2442514,324,0,-94.188000000000002,40.688000000000002,126,247
325,1,325,37,151,01008580,37151,Randolph,Randolph County,06,H1,G4020,268,24660, ,A,2026174233.000000000000000,19822770.000000000000000,+35.7099148,-079.8062153,325,0,-79.813000000000002,35.688000000000002,86,362
326,1,326,24,015,00596115,24015,Cecil,Cecil County,06,H1,G4020,428,37980,48864,A,896857451.000000000000000,185336236.000000000000000,+39.5623537,-075.9415852,326,0,-75.938000000000002,39.563000000000002,117,393
327,1,327,18,171,00450400,18171,Warren,Warren County,06,H1,G4020, , , ,A,944520568.000000000000000,4466121.000000000000000,+40.3526584,-087.3758466,327,0,-87.313000000000002,40.313000000000002,123,302
328,1,328,31,077,00835860,31077,Greeley,Greeley County,06,H1,G4020, , , ,A,1475804206.000000000000000,2188873.000000000000000,+41.5675715,-098.5305655,328,0,-98.563000000000002,41.563000000000002,133,212
329,1,329,31,095,00835869,31095,Jefferson,Jefferson County,06,H1,G4020, , , ,A,1476736217.000000000000000,14232350.000000000000000,+40.1757356,-097.1431027,329,0,-97.188000000000002,40.188000000000002,122,223
330,1,330,31,151,00835897,31151,Saline,Saline County,06,H1,G4020, , , ,A,1486698710.000000000000000,5934626.000000000000000,+40.5168024,-097.1317550,330,0,-97.188000000000002,40.563000000000002,125,223
331,1,331,21,119,00516906,21119,Knott,Knott County,06,H1,G4020, , , ,A,910427757.000000000000000,3453309.000000000000000,+37.3597236,-082.9457242,331,0,-82.938000000000002,37.313000000000002,99,337
332,1,332,19,045,00465211,19045,Clinton,Clinton County,06,H1,G4020,209,17540, ,A,1799830900.000000000000000,39514681.000000000000000,+41.8980732,-090.5342431,332,0,-90.563000000000002,41.938000000000002,136,276
333,1,333,27,063,00659477,27063,Jackson,Jackson County,06,H1,G4020, , , ,A,1820689421.000000000000000,42120425.000000000000000,+43.6711110,-095.1497314,333,0,-95.188000000000002,43.688000000000002,150,239
334,1,334,27,039,00659465,27039,Dodge,Dodge County,06,H1,G4020,462,40340, ,A,1137724830.000000000000000,800245.000000000000000,+44.0207056,-092.8693529,334,0,-92.813000000000002,44.063000000000002,153,258
335,1,335,27,047,00659469,27047,Freeborn,Freeborn County,06,H1,G4020, ,10660, ,A,1831351973.000000000000000,39709692.000000000000000,+43.6742019,-093.3502887,335,0,-93.313000000000002,43.688000000000002,150,254
336,1,336,06,009,01675885,06009,Calaveras,Calaveras County,06,H1,G4020, , , ,A,2641829199.000000000000000,43797662.000000000000000,+38.1838996,-120.5614415,336,0,-120.563000000000002,38.188000000000002,106,36
337,1,337,25,001,00606927,25001,Barnstable,Barnstable County,06,H1,G4020,148,12700, ,A,1020989901.000000000000000,2360346063.000000000000000,+41.7990145,-070.2118803,337,1,-70.188000000000002,41.688000000000002,134,439
338,1,338,51,119,01480147,51119,Middlesex,Middlesex County,06,H1,G4020, , , ,A,337507714.000000000000000,208357022.000000000000000,+37.6069753,-076.5280819,338,0,-76.563000000000002,37.563000000000002,101,388
339,1,339,42,065,01213674,42065,Jefferson,Jefferson County,06,H1,G4020, , , ,A,1689784203.000000000000000,11321806.000000000000000,+41.1380282,-079.0124190,339,0,-78.938000000000002,41.188000000000002,130,369
340,1,340,18,089,00450495,18089,Lake,Lake County,06,H1,G4020,176,16980,23844,A,1292050352.000000000000000,330971523.000000000000000,+41.4722470,-087.3743368,340,0,-87.438000000000002,41.438000000000002,132,301
341,1,341,47,003,01639723,47003,Bedford,Bedford County,06,H1,G4020,400,43180, ,A,1226719784.000000000000000,2980756.000000000000000,+35.5136604,-086.4582939,341,0,-86.438000000000002,35.563000000000002,85,309
342,1,342,47,027,01648573,47027,Clay,Clay County,06,H1,G4020, , , ,A,612626310.000000000000000,59071215.000000000000000,+36.5457881,-085.5458160,342,0,-85.563000000000002,36.563000000000002,93,316
343,1,343,17,029,00424216,17029,Coles,Coles County,06,H1,G4020, ,16660, ,A,1316459192.000000000000000,4631825.000000000000000,+39.5136797,-088.2207820,343,0,-88.188000000000002,39.563000000000002,117,295
344,1,344,47,097,01639763,47097,Lauderdale,Lauderdale County,06,H1,G4020, , , ,A,1222389178.000000000000000,92231159.000000000000000,+35.7629507,-089.6277318,344,0,-89.688000000000002,35.813000000000002,87,283
345,1,345,41,001,01135845,41001,Baker,Baker County,06,H1,G4020, , , ,A,7945996928.000000000000000,51832632.000000000000000,+44.7034268,-117.6919334,345,0,-117.688000000000002,44.688000000000002,158,59
346,1,346,36,097,00974146,36097,Schuyler,Schuyler County,06,H1,G4020, , , ,A,850379112.000000000000000,36246374.000000000000000,+42.4197755,-076.9386030,346,0,-76.813000000000002,42.438000000000002,140,386
347,1,347,26,159,01623020,26159,Van Buren,Van Buren County,06,H1,G4020,310,28020, ,A,1574166310.000000000000000,1248671230.000000000000000,+42.2821497,-086.3060762,347,1,-86.188000000000002,42.313000000000002,139,311
348,1,348,17,131,01784750,17131,Mercer,Mercer County,06,H1,G4020,209,19340, ,A,1453500381.000000000000000,19409929.000000000000000,+41.2047906,-090.7414333,348,0,-90.688000000000002,41.188000000000002,130,275
349,1,349,21,127,00516910,21127,Lawrence,Lawrence County,06,H1,G4020, , , ,A,1076385464.000000000000000,11584860.000000000000000,+38.0744569,-082.7383015,349,0,-82.688000000000002,38.063000000000002,105,339
350,1,350,21,175,00516934,21175,Morgan,Morgan County,06,H1,G4020, , , ,A,987114420.000000000000000,6889722.000000000000000,+37.9229402,-083.2589444,350,0,-83.313000000000002,37.938000000000002,104,334
351,1,351,21,177,00516935,21177,Muhlenberg,Muhlenberg County,06,H1,G4020, ,16420, ,A,1209734539.000000000000000,31905594.000000000000000,+37.2138159,-087.1340919,351,0,-87.188000000000002,37.188000000000002,98,303
352,1,352,17,049,00424226,17049,Effingham,Effingham County,06,H1,G4020, ,20820, ,A,1240027659.000000000000000,3183217.000000000000000,+39.0479445,-088.5928488,352,0,-88.563000000000002,39.063000000000002,113,292
353,1,353,47,105,01639767,47105,Loudon,Loudon County,06,H1,G4020,314,28940, ,A,593760987.000000000000000,46923925.000000000000000,+35.7374500,-084.3162040,353,0,-84.313000000000002,35.688000000000002,86,326
354,1,354,46,025,01266985,46025,Clark,Clark County,06,H1,G4020, , , ,A,2480181919.000000000000000,25627353.000000000000000,+44.8552107,-097.7249124,354,0,-97.688000000000002,44.813000000000002,159,219
355,1,355,12,041,00303633,12041,Gilchrist,Gilchrist County,06,H1,G4020,264,23540, ,A,905705520.000000000000000,14362154.000000000000000,+29.7234556,-082.7958011,355,0,-82.813000000000002,29.687999999999999,38,338
356,1,356,18,157,00450393,18157,Tippecanoe,Tippecanoe County,06,H1,G4020,320,29200, ,A,1292138000.000000000000000,11256312.000000000000000,+40.3891334,-086.8935538,356,0,-86.938000000000002,40.438000000000002,124,305
357,1,357,42,109,01213686,42109,Snyder,Snyder County,06,H1,G4020,146,42780, ,A,851544496.000000000000000,7157948.000000000000000,+40.7554068,-077.0729288,357,0,-77.063000000000002,40.813000000000002,127,384
358,1,358,48,277,01383925,48277,Lamar,Lamar County,06,H1,G4020, ,37580, ,A,2349588917.000000000000000,67136455.000000000000000,+33.6672628,-095.5703477,358,0,-95.563000000000002,33.688000000000002,70,236
359,1,359,12,086,00295755,12086,Miami-Dade,Miami-Dade County,06,H1,G4020,370,33100,33124,A,4917514967.000000000000000,1379206478.000000000000000,+25.6105796,-080.4991365,359,0,-80.438000000000002,25.562999999999999,5,357
360,1,360,31,057,00835850,31057,Dundy,Dundy County,06,H1,G4020, , , ,A,2381956152.000000000000000,3046330.000000000000000,+40.1801650,-101.6811327,360,0,-101.688000000000002,40.188000000000002,122,187
361,1,361,48,289,01383930,48289,Leon,Leon County,06,H1,G4020, , , ,A,2779462014.000000000000000,19328383.000000000000000,+31.3004926,-095.9956219,361,0,-95.938000000000002,31.312999999999999,51,233
362,1,362,08,097,00198164,08097,Pitkin,Pitkin County,06,H1,G4020,233,24060, ,A,2514104933.000000000000000,6472574.000000000000000,+39.2173323,-106.9157831,362,0,-106.938000000000002,39.188000000000002,114,145
363,1,363,38,035,01034218,38035,Grand Forks,Grand Forks County,06,H1,G4020, ,24220, ,A,3720138079.000000000000000,8156569.000000000000000,+47.9260026,-097.4508510,363,0,-97.438000000000002,47.938000000000002,184,221
364,1,364,18,091,00450507,18091,LaPorte,LaPorte County,06,H1,G4020,176,33140, ,A,1549582915.000000000000000,38751745.000000000000000,+41.5490129,-086.7447386,364,0,-86.688000000000002,41.563000000000002,133,307
365,1,365,18,057,00450356,18057,Hamilton,Hamilton County,06,H1,G4020,294,26900, ,A,1021307261.000000000000000,20999468.000000000000000,+40.0536499,-086.0217262,365,0,-86.063000000000002,40.063000000000002,121,312
366,1,366,51,595,01498422,51595,Emporia,Emporia city,25,C7,G4020, , , ,F,17881071.000000000000000,165621.000000000000000,+36.6961820,-077.5359753,366,0,-77.563000000000002,36.688000000000002,94,380
367,1,367,40,081,01101828,40081,Lincoln,Lincoln County,06,H1,G4020,416,36420, ,A,2466490647.000000000000000,34606636.000000000000000,+35.7031175,-096.8813917,367,0,-96.938000000000002,35.688000000000002,86,225
368,1,368,20,071,00485002,20071,Greeley,Greeley County,06,H6,G4020, , , ,C,2016057985.000000000000000,0.000000000000000,+38.4804041,-101.8059697,368,0,-101.813000000000002,38.438000000000002,108,186
369,1,369,13,145,00326700,13145,Harris,Harris County,06,H1,G4020,194,17980, ,A,1201447999.000000000000000,23502960.000000000000000,+32.7315494,-084.9124320,369,0,-84.938000000000002,32.688000000000002,62,321
370,1,370,13,251,00350204,13251,Screven,Screven County,06,H1,G4020, , , ,A,1670807253.000000000000000,27885165.000000000000000,+32.7447512,-081.6175849,370,0,-81.563000000000002,32.813000000000002,63,348
371,1,371,48,433,01384002,48433,Stonewall,Stonewall County,06,H1,G4020, , , ,A,2373238704.000000000000000,10177387.000000000000000,+33.1795797,-100.2538069,371,0,-100.313000000000002,33.188000000000002,66,198
372,1,372,39,069,01074047,39069,Henry,Henry County,06,H1,G4020, , , ,A,1077461474.000000000000000,9687645.000000000000000,+41.3315843,-084.0688996,372,0,-84.063000000000002,41.313000000000002,131,328
373,1,373,33,009,00873178,33009,Grafton,Grafton County,06,H1,G4020, ,17200, ,A,4425224129.000000000000000,106489725.000000000000000,+43.9264394,-071.8424220,373,0,-71.813000000000002,43.938000000000002,152,426
374,1,374,29,145,00758527,29145,Newton,Newton County,06,H1,G4020,309,27900, ,A,1618104260.000000000000000,4717267.000000000000000,+36.9083639,-094.3350211,374,0,-94.313000000000002,36.938000000000002,96,246
375,1,375,18,129,00450383,18129,Posey,Posey County,06,H1,G4020, ,21780, ,A,1060786892.000000000000000,25260282.000000000000000,+38.0276138,-087.8686526,375,0,-87.813000000000002,38.063000000000002,105,298
376,1,376,48,311,01383947,48311,McMullen,McMullen County,06,H1,G4020, , , ,A,2952065876.000000000000000,43985815.000000000000000,+28.3849220,-098.5788529,376,0,-98.563000000000002,28.312999999999999,27,212
377,1,377,17,035,00424219,17035,Cumberland,Cumberland County,06,H1,G4020, ,16660, ,A,896203087.000000000000000,2531272.000000000000000,+39.2731210,-088.2406193,377,0,-88.188000000000002,39.313000000000002,115,295
378,1,378,13,297,00351264,13297,Walton,Walton County,06,H1,G4020,122,12060, ,A,845768028.000000000000000,8927725.000000000000000,+33.7838866,-083.7318290,378,0,-83.688000000000002,33.813000000000002,71,331
379,1,379,27,121,00659506,27121,Pope,Pope County,06,H1,G4020, , , ,A,1734134611.000000000000000,123231111.000000000000000,+45.5896228,-095.4467052,379,0,-95.438000000000002,45.563000000000002,165,237
380,1,380,51,157,01673976,51157,Rappahannock,Rappahannock County,06,H1,G4020,548,47900,47894,A,689901003.000000000000000,2142395.000000000000000,+38.6845215,-078.1688241,380,0,-78.188000000000002,38.688000000000002,110,375
381,1,381,51,009,01480095,51009,Amherst,Amherst County,06,H1,G4020, ,31340, ,A,1227554626.000000000000000,12883346.000000000000000,+37.6286103,-079.1542813,381,0,-79.188000000000002,37.563000000000002,101,367
382,1,382,06,111,00277320,06111,Ventura,Ventura County,06,H1,G4020,348,37100, ,A,4773302741.000000000000000,946030569.000000000000000,+34.3587415,-119.1331432,382,0,-119.188000000000002,34.313000000000002,75,47
383,1,383,17,033,00424218,17033,Crawford,Crawford County,06,H1,G4020, , , ,A,1149004930.000000000000000,5659945.000000000000000,+39.0027685,-087.7606208,383,0,-87.813000000000002,39.063000000000002,113,298
384,1,384,08,093,00198162,08093,Park,Park County,06,H1,G4020,216,19740, ,A,5682181421.000000000000000,43520913.000000000000000,+39.1189141,-105.7176479,384,0,-105.688000000000002,39.063000000000002,113,155
385,1,385,06,037,00277283,06037,Los Angeles,Los Angeles County,06,H1,G4020,348,31080,31084,A,10510588451.000000000000000,1794793532.000000000000000,+34.1963983,-118.2618616,385,0,-118.313000000000002,34.188000000000002,74,54
386,1,386,04,027,00023901,04027,Yuma,Yuma County,06,H1,G4020, ,49740, ,A,14281265651.000000000000000,13171316.000000000000000,+32.7739424,-113.9109050,386,0,-113.938000000000002,32.813000000000002,63,89
387,1,387,13,129,00356672,13129,Gordon,Gordon County,06,H1,G4020,122,15660, ,A,921597971.000000000000000,5729801.000000000000000,+34.5096669,-084.8738622,387,0,-84.938000000000002,34.563000000000002,77,321
388,1,388,19,025,00465202,19025,Calhoun,Calhoun County,06,H1,G4020, , , ,A,1475894622.000000000000000,5873828.000000000000000,+42.3861699,-094.6436829,388,0,-94.688000000000002,42.438000000000002,140,243
389,1,389,12,055,00295756,12055,Highlands,Highlands County,06,H1,G4020, ,42700, ,A,2632952088.000000000000000,231653040.000000000000000,+27.3426272,-081.3409213,389,0,-81.313000000000002,27.312999999999999,19,350
390,1,390,51,580,01789069,51580,Covington,Covington city,25,C7,G4020, , , ,F,14163308.000000000000000,522024.000000000000000,+37.7781426,-079.9860390,390,0,-79.938000000000002,37.813000000000002,103,361
391,1,391,50,017,01461765,50017,Orange,Orange County,06,H1,G4020, ,17200, ,A,1779389357.000000000000000,12016544.000000000000000,+44.0033924,-072.3696871,391,0,-72.438000000000002,44.063000000000002,153,421
392,1,392,20,113,00485021,20113,McPherson,McPherson County,06,H1,G4020, ,32700, ,A,2326519566.000000000000000,6031186.000000000000000,+38.3958120,-097.6474893,392,0,-97.688000000000002,38.438000000000002,108,219
393,1,393,04,021,00025447,04021,Pinal,Pinal County,06,H1,G4020, ,38060, ,A,13897471114.000000000000000,22332471.000000000000000,+32.9185385,-111.3663874,393,0,-111.313000000000002,32.938000000000002,64,110
394,1,394,39,051,01074038,39051,Fulton,Fulton County,06,H1,G4020,534,45780, ,A,1050092648.000000000000000,4621138.000000000000000,+41.5972639,-084.1242667,394,0,-84.188000000000002,41.563000000000002,133,327
395,1,395,08,003,00198117,08003,Alamosa,Alamosa County,06,H1,G4020, , , ,A,1871465873.000000000000000,1847609.000000000000000,+37.5684423,-105.7880414,395,0,-105.813000000000002,37.563000000000002,101,154
396,1,396,12,017,00295752,12017,Citrus,Citrus County,06,H1,G4020, ,26140, ,A,1507111917.000000000000000,495578435.000000000000000,+28.8436402,-082.5248099,396,0,-82.563000000000002,28.812999999999999,31,340
397,1,397,47,041,01639738,47041,DeKalb,DeKalb County,06,H1,G4020, , , ,A,788354549.000000000000000,63715775.000000000000000,+35.9822191,-085.8335959,397,0,-85.813000000000002,35.938000000000002,88,314
398,1,398,42,031,01210234,42031,Clarion,Clarion County,06,H1,G4020, , , ,A,1556152465.000000000000000,23335885.000000000000000,+41.1981594,-079.4203691,398,0,-79.438000000000002,41.188000000000002,130,365
399,1,399,46,097,01265777,46097,Miner,Miner County,06,H1,G4020, , , ,A,1476889390.000000000000000,4382648.000000000000000,+44.0215411,-097.6081220,399,0,-97.563000000000002,44.063000000000002,153,220
400,1,400,46,073,01265778,46073,Jerauld,Jerauld County,06,H1,G4020, , , ,A,1362808091.000000000000000,16668604.000000000000000,+44.0634099,-098.6231702,400,0,-98.688000000000002,44.063000000000002,153,211
401,1,401,18,031,00450345,18031,Decatur,Decatur County,06,H1,G4020,294,24700, ,A,964946087.000000000000000,1955470.000000000000000,+39.3059799,-085.4998310,401,0,-85.563000000000002,39.313000000000002,115,316
402,1,402,18,037,00451675,18037,Dubois,Dubois County,06,H1,G4020, ,27540, ,A,1106626119.000000000000000,20883162.000000000000000,+38.3733441,-086.8733845,402,0,-86.938000000000002,38.313000000000002,107,305
403,1,403,51,057,01480118,51057,Essex,Essex County,06,H1,G4020, , , ,A,665909923.000000000000000,74784989.000000000000000,+37.9394802,-076.9418713,403,0,-76.938000000000002,37.938000000000002,104,385
404,1,404,45,089,01248018,45089,Williamsburg,Williamsburg County,06,H1,G4020, , , ,A,2419464748.000000000000000,7469568.000000000000000,+33.6264629,-079.7164752,404,0,-79.688000000000002,33.563000000000002,69,363
405,1,405,36,031,00974114,36031,Essex,Essex County,06,H1,G4020, , , ,A,4646734755.000000000000000,316368965.000000000000000,+44.1096005,-073.7784307,405,0,-73.813000000000002,44.063000000000002,153,410
406,1,406,19,195,00465286,19195,Worth,Worth County,06,H1,G4020, ,32380, ,A,1036314926.000000000000000,4709127.000000000000000,+43.3734910,-093.2485332,406,0,-93.313000000000002,43.438000000000002,148,254
407,1,407,40,063,01101819,40063,Hughes,Hughes County,06,H1,G4020, , , ,A,2084026137.000000000000000,26504863.000000000000000,+35.0529339,-096.2511829,407,0,-96.188000000000002,35.063000000000002,81,231
408,1,408,51,027,01497431,51027,Buchanan,Buchanan County,06,H1,G4020, , , ,A,1302387725.000000000000000,2803981.000000000000000,+37.2681198,-082.0381508,408,0,-82.063000000000002,37.313000000000002,99,344
409,1,409,51,005,01673675,51005,Alleghany,Alleghany County,06,H1,G4020, , , ,A,1156287826.000000000000000,8491488.000000000000000,+37.7879048,-080.0086690,409,0,-80.063000000000002,37.813000000000002,103,360
410,1,410,28,087,00695767,28087,Lowndes,Lowndes County,06,H1,G4020,200,18060, ,A,1309077220.000000000000000,28560499.000000000000000,+33.4714237,-088.4397227,410,0,-88.438000000000002,33.438000000000002,68,293
411,1,411,18,143,00450386,18143,Scott,Scott County,06,H1,G4020,350,31140, ,A,493126036.000000000000000,6088999.000000000000000,+38.6794309,-085.7518981,411,0,-85.688000000000002,38.688000000000002,110,315
412,1,412,08,099,00198165,08099,Prowers,Prowers County,06,H1,G4020, , , ,A,4243428647.000000000000000,15345957.000000000000000,+37.9581814,-102.3921613,412,0,-102.438000000000002,37.938000000000002,104,181
413,1,413,48,435,01384003,48435,Sutton,Sutton County,06,H1,G4020, , , ,A,3765674653.000000000000000,1277066.000000000000000,+30.5176801,-100.5052697,413,0,-100.563000000000002,30.437999999999999,44,196
414,1,414,40,101,01101838,40101,Muskogee,Muskogee County,06,H1,G4020,538,34780, ,A,2099053124.000000000000000,75966890.000000000000000,+35.6175506,-095.3839106,414,0,-95.438000000000002,35.563000000000002,85,237
415,1,415,29,043,00758476,29043,Christian,Christian County,06,H1,G4020,520,44180, ,A,1457243595.000000000000000,3012641.000000000000000,+36.9697388,-093.1876139,415,0,-93.188000000000002,36.938000000000002,96,255
416,1,416,28,073,00695760,28073,Lamar,Lamar County,06,H1,G4020, ,25620, ,A,1287499611.000000000000000,8599890.000000000000000,+31.1975865,-089.5063691,416,0,-89.563000000000002,31.187999999999999,50,284
417,1,417,18,137,00450385,18137,Ripley,Ripley County,06,H1,G4020, , , ,A,1156236802.000000000000000,4237459.000000000000000,+39.1002257,-085.2604937,417,0,-85.313000000000002,39.063000000000002,113,318
418,1,418,38,057,01034233,38057,Mercer,Mercer County,06,H1,G4020, , , ,A,2701236315.000000000000000,180102277.000000000000000,+47.3071473,-101.8333279,418,0,-101.813000000000002,47.313000000000002,179,186
419,1,419,13,147,01687995,13147,Hart,Hart County,06,H1,G4020, , , ,A,601908709.000000000000000,63583341.000000000000000,+34.3487328,-082.9632900,419,0,-82.938000000000002,34.313000000000002,75,337
420,1,420,22,049,00558592,22049,Jackson,Jackson Parish,15,H1,G4020, , , ,A,1474195902.000000000000000,28714912.000000000000000,+32.3042901,-092.5616997,420,0,-92.563000000000002,32.313000000000002,59,260
421,1,421,51,133,01480152,51133,Northumberland,Northumberland County,06,H1,G4020, , , ,A,495728041.000000000000000,243986806.000000000000000,+37.8569736,-076.3796872,421,0,-76.438000000000002,37.813000000000002,103,389
422,1,422,48,157,01383864,48157,Fort Bend,Fort Bend County,06,H1,G4020,288,26420, ,A,2231423107.000000000000000,61595965.000000000000000,+29.5266017,-095.7710149,422,0,-95.813000000000002,29.562999999999999,37,234
423,1,423,55,047,01581083,55047,Green Lake,Green Lake County,06,H1,G4020, , , ,A,904711548.000000000000000,79805895.000000000000000,+43.8261905,-089.1136994,423,0,-89.063000000000002,43.813000000000002,151,288
424,1,424,30,073,01719587,30073,Pondera,Pondera County,06,H1,G4020, , , ,A,4207608379.000000000000000,43980663.000000000000000,+48.2286037,-112.2207612,424,0,-112.188000000000002,48.188000000000002,186,103
425,1,425,55,127,01581123,55127,Walworth,Walworth County,06,H1,G4020,376,48580, ,A,1438141978.000000000000000,55217124.000000000000000,+42.6681095,-088.5417306,425,0,-88.563000000000002,42.688000000000002,142,292
426,1,426,32,021,00858644,32021,Mineral,Mineral County,06,H1,G4020, , , ,A,9719815219.000000000000000,155746682.000000000000000,+38.5166470,-118.4162794,426,0,-118.438000000000002,38.563000000000002,109,53
427,1,427,17,057,00424230,17057,Fulton,Fulton County,06,H1,G4020,427,15900, ,A,2241880793.000000000000000,43973314.000000000000000,+40.4652401,-090.2022689,427,0,-90.188000000000002,40.438000000000002,124,279
428,1,428,36,103,00974149,36103,Suffolk,Suffolk County,06,H1,G4020,408,35620,35004,A,2360846288.000000000000000,3785546967.000000000000000,+40.9435540,-072.6922184,428,0,-72.688000000000002,40.938000000000002,128,419
429,1,429,18,161,00450395,18161,Union,Union County,06,H1,G4020,178,17140, ,A,417568563.000000000000000,10238515.000000000000000,+39.6231109,-084.9251523,429,0,-84.938000000000002,39.688000000000002,118,321
430,1,430,29,119,00758518,29119,McDonald,McDonald County,06,H1,G4020, ,22220, ,A,1397247177.000000000000000,520251.000000000000000,+36.6302180,-094.3439556,430,0,-94.313000000000002,36.688000000000002,94,246
431,1,431,31,157,00835900,31157,Scotts Bluff,Scotts Bluff County,06,H1,G4020, ,42420, ,A,1915079274.000000000000000,15397684.000000000000000,+41.8503306,-103.7015494,431,0,-103.688000000000002,41.813000000000002,135,171
432,1,432,35,047,00929114,35047,San Miguel,San Miguel County,06,H1,G4020,106,29780, ,A,12230067556.000000000000000,51380263.000000000000000,+35.4768585,-104.8035189,432,0,-104.813000000000002,35.438000000000002,84,162
433,1,433,01,081,00161566,01081,Lee,Lee County,06,H1,G4020,194,12220, ,A,1573550101.000000000000000,21491164.000000000000000,+32.6040644,-085.3530477,433,0,-85.313000000000002,32.563000000000002,61,318
434,1,434,48,367,01383969,48367,Parker,Parker County,06,H1,G4020,206,19100,23104,A,2340006395.000000000000000,17127713.000000000000000,+32.7770964,-097.8059049,434,0,-97.813000000000002,32.813000000000002,63,218
435,1,435,38,021,01035622,38021,Dickey,Dickey County,06,H1,G4020, , , ,A,2930494902.000000000000000,27610562.000000000000000,+46.1077559,-098.4965182,435,0,-98.563000000000002,46.063000000000002,169,212
436,1,436,38,003,01034225,38003,Barnes,Barnes County,06,H1,G4020, , , ,A,3863107435.000000000000000,56591279.000000000000000,+46.9425500,-098.0701946,436,0,-98.063000000000002,46.938000000000002,176,216
437,1,437,27,143,00659516,27143,Sibley,Sibley County,06,H1,G4020,378,33460, ,A,1524941287.000000000000000,30470667.000000000000000,+44.5757343,-094.2301232,437,0,-94.188000000000002,44.563000000000002,157,247
438,1,438,13,293,00346759,13293,Upson,Upson County,06,H1,G4020,122,45580, ,A,837697011.000000000000000,10663282.000000000000000,+32.8818367,-084.2922831,438,0,-84.313000000000002,32.938000000000002,64,326
439,1,439,06,097,01657246,06097,Sonoma,Sonoma County,06,H1,G4020,488,42220, ,A,4081450561.000000000000000,497495823.000000000000000,+38.5251824,-122.9261095,439,0,-122.938000000000002,38.563000000000002,109,17
440,1,440,26,033,01622959,26033,Chippewa,Chippewa County,06,H1,G4020, ,42300, ,A,4036522461.000000000000000,2952482167.000000000000000,+46.3218192,-084.5206297,440,0,-84.563000000000002,46.313000000000002,171,324
441,1,441,16,019,00395407,16019,Bonneville,Bonneville County,06,H1,G4020,292,26820, ,A,4832874977.000000000000000,88853019.000000000000000,+43.3951708,-111.6218783,441,0,-111.563000000000002,43.438000000000002,148,108
442,1,442,13,013,00356976,13013,Barrow,Barrow County,06,H1,G4020,122,12060, ,A,416283948.000000000000000,5707989.000000000000000,+33.9920094,-083.7123025,442,0,-83.688000000000002,33.938000000000002,72,331
443,1,443,13,183,00326719,13183,Long,Long County,06,H1,G4020,496,25980, ,A,1037005778.000000000000000,8862741.000000000000000,+31.7495633,-081.7428697,443,0,-81.688000000000002,31.812999999999999,55,347
444,1,444,48,271,01383921,48271,Kinney,Kinney County,06,H1,G4020, , , ,A,3522525623.000000000000000,13124946.000000000000000,+29.3470865,-100.4177003,444,0,-100.438000000000002,29.312999999999999,35,197
445,1,445,40,115,01101845,40115,Ottawa,Ottawa County,06,H1,G4020,309,33060, ,A,1219467497.000000000000000,35708902.000000000000000,+36.8357635,-094.8026814,445,0,-94.813000000000002,36.813000000000002,95,242
446,1,446,42,033,01209175,42033,Clearfield,Clearfield County,06,H1,G4020,524,20180, ,A,2964714577.000000000000000,23932649.000000000000000,+41.0002489,-078.4737490,446,0,-78.438000000000002,40.938000000000002,128,373
447,1,447,26,037,01622961,26037,Clinton,Clinton County,06,H1,G4020,330,29620, ,A,1467009545.000000000000000,21106020.000000000000000,+42.9504550,-084.5916949,447,0,-84.563000000000002,42.938000000000002,144,324
448,1,448,17,135,01784866,17135,Montgomery,Montgomery County,06,H1,G4020, , , ,A,1822539611.000000000000000,15512963.000000000000000,+39.2280932,-089.4780041,448,0,-89.438000000000002,39.188000000000002,114,285
449,1,449,28,003,00711755,28003,Alcorn,Alcorn County,06,H1,G4020, ,18420, ,A,1036100568.000000000000000,3417891.000000000000000,+34.8865689,-088.5811091,449,0,-88.563000000000002,34.938000000000002,80,292
450,1,450,28,071,00695759,28071,Lafayette,Lafayette County,06,H1,G4020, ,37060, ,A,1636137315.000000000000000,123056595.000000000000000,+34.3492982,-089.4859026,450,0,-89.438000000000002,34.313000000000002,75,285
451,1,451,22,043,00558567,22043,Grant,Grant Parish,15,H1,G4020, ,10780, ,A,1665429795.000000000000000,56013947.000000000000000,+31.5977873,-092.5617156,451,0,-92.563000000000002,31.562999999999999,53,260
452,1,452,29,005,00758457,29005,Atchison,Atchison County,06,H1,G4020, , , ,A,1417462632.000000000000000,7359184.000000000000000,+40.4318460,-095.4375546,452,0,-95.438000000000002,40.438000000000002,124,237
453,1,453,17,115,00424256,17115,Macon,Macon County,06,H1,G4020, ,19500, ,A,1503973504.000000000000000,13409564.000000000000000,+39.8602372,-088.9615288,453,0,-88.938000000000002,39.813000000000002,119,289
454,1,454,26,149,01625034,26149,St. Joseph,St. Joseph County,06,H1,G4020,310,44780, ,A,1296530601.000000000000000,52921099.000000000000000,+41.9114878,-085.5228703,454,0,-85.563000000000002,41.938000000000002,136,316
455,1,455,17,055,00424229,17055,Franklin,Franklin County,06,H1,G4020, , , ,A,1059021102.000000000000000,58413469.000000000000000,+37.9918483,-088.9262457,455,0,-88.938000000000002,37.938000000000002,104,289
456,1,456,30,033,01716058,30033,Garfield,Garfield County,06,H1,G4020, , , ,A,12112233301.000000000000000,446864348.000000000000000,+47.2800330,-106.9867061,456,0,-106.938000000000002,47.313000000000002,179,145
457,1,457,31,001,00835823,31001,Adams,Adams County,06,H1,G4020, ,25580, ,A,1458869099.000000000000000,2481410.000000000000000,+40.5206322,-098.5000441,457,0,-98.563000000000002,40.563000000000002,125,212
458,1,458,27,109,00659500,27109,Olmsted,Olmsted County,06,H1,G4020,462,40340, ,A,1692581425.000000000000000,3505507.000000000000000,+44.0034295,-092.4067216,458,0,-92.438000000000002,44.063000000000002,153,261
459,1,459,34,039,00882235,34039,Union,Union County,06,H1,G4020,408,35620,35084,A,266170662.000000000000000,7046286.000000000000000,+40.6598707,-074.3086957,459,0,-74.313000000000002,40.688000000000002,126,406
460,1,460,01,097,00161575,01097,Mobile,Mobile County,06,H1,G4020,380,33660, ,A,3184127436.000000000000000,1073844850.000000000000000,+30.6845725,-088.1965682,460,0,-88.188000000000002,30.687999999999999,46,295
461,1,461,46,087,01265773,46087,McCook,McCook County,06,H1,G4020, ,43620, ,A,1487182081.000000000000000,6898508.000000000000000,+43.6789244,-097.3620356,461,0,-97.313000000000002,43.688000000000002,150,222
462,1,462,01,057,00161554,01057,Fayette,Fayette County,06,H1,G4020, , , ,A,1625693280.000000000000000,4330881.000000000000000,+33.7161568,-087.7642923,462,0,-87.688000000000002,33.688000000000002,70,299
463,1,463,01,017,00161534,01017,Chambers,Chambers County,06,H1,G4020,194,46740, ,A,1545009122.000000000000000,17048126.000000000000000,+32.9155039,-085.3940321,463,0,-85.438000000000002,32.938000000000002,64,317
464,1,464,37,131,01008575,37131,Northampton,Northampton County,06,H1,G4020,468,40260, ,A,1389889811.000000000000000,36034131.000000000000000,+36.4217739,-077.3983518,464,0,-77.438000000000002,36.438000000000002,92,381
465,1,465,08,081,00198156,08081,Moffat,Moffat County,06,H1,G4020,525,18780, ,A,12284943876.000000000000000,19803412.000000000000000,+40.6163576,-108.2110988,465,0,-108.188000000000002,40.563000000000002,125,135
466,1,466,21,087,00516890,21087,Green,Green County,06,H1,G4020, , , ,A,740839712.000000000000000,7123457.000000000000000,+37.2696366,-085.5614029,466,0,-85.563000000000002,37.313000000000002,99,316
467,1,467,18,047,00450352,18047,Franklin,Franklin County,06,H1,G4020, , , ,A,995670602.000000000000000,17143494.000000000000000,+39.4097620,-085.0669641,467,0,-85.063000000000002,39.438000000000002,116,320
468,1,468,37,013,01026333,37013,Beaufort,Beaufort County,06,H1,G4020,274,47820, ,A,2154872483.000000000000000,338892301.000000000000000,+35.4823128,-076.8420144,468,0,-76.813000000000002,35.438000000000002,84,386
469,1,469,38,015,01035614,38015,Burleigh,Burleigh County,06,H1,G4020, ,13900, ,A,4228239131.000000000000000,92618423.000000000000000,+46.9718426,-100.4620005,469,0,-100.438000000000002,46.938000000000002,176,197
470,1,470,37,159,01008583,37159,Rowan,Rowan County,06,H1,G4020,172,16740, ,A,1324722118.000000000000000,32235596.000000000000000,+35.6413294,-080.5217216,470,0,-80.563000000000002,35.688000000000002,86,356
471,1,471,26,071,01622978,26071,Iron,Iron County,06,H1,G4020, , , ,A,3019973510.000000000000000,116746381.000000000000000,+46.1702542,-088.5405261,471,0,-88.563000000000002,46.188000000000002,170,292
472,1,472,27,067,00659479,27067,Kandiyohi,Kandiyohi County,06,H1,G4020, ,48820, ,A,2064978211.000000000000000,168506888.000000000000000,+45.1527137,-095.0049812,472,0,-95.063000000000002,45.188000000000002,162,240
473,1,473,21,237,00516965,21237,Wolfe,Wolfe County,06,H1,G4020, , , ,A,575419099.000000000000000,1505157.000000000000000,+37.7437739,-083.4950678,473,0,-83.438000000000002,37.688000000000002,102,333
474,1,474,48,149,01383860,48149,Fayette,Fayette County,06,H1,G4020, , , ,A,2460152119.000000000000000,25739448.000000000000000,+29.8778861,-096.9212309,474,0,-96.938000000000002,29.937999999999999,40,225
475,1,475,46,081,01266996,46081,Lawrence,Lawrence County,06,H1,G4020,452,43940, ,A,2072127374.000000000000000,667509.000000000000000,+44.3485720,-103.8057912,475,0,-103.813000000000002,44.313000000000002,155,170
476,1,476,23,029,00581300,23029,Washington,Washington County,06,H1,G4020, , , ,A,6637326498.000000000000000,1800003936.000000000000000,+44.9670088,-067.6093542,476,0,-67.563000000000002,44.938000000000002,160,460
477,1,477,48,045,01383808,48045,Briscoe,Briscoe County,06,H1,G4020, , , ,A,2330991085.000000000000000,4068657.000000000000000,+34.5251725,-101.2058930,477,0,-101.188000000000002,34.563000000000002,77,191
478,1,478,26,131,01623008,26131,Ontonagon,Ontonagon County,06,H1,G4020, , , ,A,3395416191.000000000000000,6292279421.000000000000000,+47.2166022,-089.5004631,478,1,-89.438000000000002,46.813000000000002,175,285
479,1,479,28,015,00695732,28015,Carroll,Carroll County,06,H1,G4020, ,24900, ,A,1627140833.000000000000000,16426880.000000000000000,+33.4407948,-089.9188870,479,0,-89.938000000000002,33.438000000000002,68,281
480,1,480,41,003,01155126,41003,Benton,Benton County,06,H1,G4020,440,18700, ,A,1748712527.000000000000000,7740249.000000000000000,+44.4938816,-123.4246641,480,0,-123.438000000000002,44.438000000000002,156,13
481,1,481,27,133,00659512,27133,Rock,Rock County,06,H1,G4020, , , ,A,1249560774.000000000000000,698231.000000000000000,+43.6695866,-096.2632376,481,0,-96.313000000000002,43.688000000000002,150,230
